id,name,lng,lat
09d3df05b61d4b57959762d9ed2f986c,香洲,113.56195,22.282892
986531bc5af04121a7a5bbbf27854cfb,南坑,113.560798,22.278653
e08091f7813e44c787f30e43f6eed746,桃园新村,113.560138,22.276947
22e05ea260c1428baf3d5b5cd032e63e,银桦新村,113.555503,22.274633
419aae94bc4d4d7f85fc2cbc52a9df5f,新村,113.549798,22.274052
8bf54deada644f61b5bea3f8090cc1ce,南村,113.540685,22.27248
7a2b8cd7b1ae412194357e684b8bdf4c,香洲区府,113.534852,22.271537
e8de03d1600144d0b6e24a2d2ee9ae2b,红山、仁恒星园,113.531358,22.270957
a9d903998f354db98a9aa9c2aad8c8e5,安居园,113.525528,22.270069
76c82cc4394e46efb6ded972aadb95d6,新香洲万家,113.52237,22.269587
db4ac2beeb404614881656192df56655,上冲,113.517138,22.268768
0f23a5f8c9b74961b0b959daa6389f5e,明珠北,113.513939,22.262794
92de44b4dbf545af9174104cec4c0131,翠微,113.514633,22.259644
922ee928169a4afc944efd803aa4cd0d,招商花园城南,113.516023,22.257697
63a276a38a1e4d139cd9209d3fab1e56,海纳石鸣苑,113.520256,22.256542
c7927295285e4820aac9b32b2ccf0373,中山亭,113.520008,22.249097
5e8a3b45e3724c5ab1bfa5863d8ad66b,公交临时站,113.521889,22.247236
ea893d78bd704c1091d89755d0db04f7,瀚林苑,113.52315,22.244647
825e8bf471224fbaae2f4589baa50fb0,前山,113.521697,22.242539
588b70f2c1984e5395a5a1d37ab5a3f9,白石、银石雅园,113.532355,22.238658
28e142b3b19b48b8a7c8fcbf3ceae8e8,兰埔、富华里,113.537595,22.23937
d7db6ef4ddcb45b69f166e10751a2d44,摩尔广场,113.546222,22.237328
c7a1c6413c8b44219dd1a4d8d265ac62,华侨宾馆,113.546868,22.233377
583401abc31545abace9cd3f6c79b58c,拱北,113.548025,22.223978
83372752a25d4bbcbce138cfaf59bf31,城轨珠海站,113.545108,22.218731
6443ef8c7b3b4b858d3397a33403d2b5,金鼎工业园,113.50986,22.376243
bea8d4ed60c644d0bfe9fd47a0793dd9,宏利药业,113.513395,22.377503
251994585c594545a8dddd3a19bcddd6,名图科技,113.51729,22.378907
f770d686aaee48f3b8bbac90515c15d7,园区服务中心,113.52063,22.38009
f714f88279524cb297f6a80d458e73bf,景峰广场,113.525575,22.381778
f29110b495ae40c2bc33e2761d2dfc1e,一六八医院,113.528948,22.382473
d73f70a9d8a04bca9bdd9f2448df3d6f,高新区人民医院,113.533265,22.383058
979fb7978f8c4be4ab5c5d827d67cfea,金鼎市场,113.538383,22.383317
ec5e7018f3334f468e68d72edb4c3710,下栅,113.541312,22.383483
8891bd56e6164c5ca32061187827fba0,官塘,113.548082,22.38058
256ef37f645d46b282e469a25d8fb1a9,宝莱特科技,113.554227,22.376843
70b0d0e6f3364e22a98e7daf79df5017,国际赛车场经济港,113.560173,22.37541
3f0e797dcf484ee9b18330f8c427d7e0,白沙、魅族,113.563657,22.37571
878050c46df3443cb8285bed974256f0,南方软件园,113.56904,22.376513
26e6f9ab6d7144bc807716b86529a3a6,珍珠乐园,113.575947,22.37552
497dd86a03b84b3e98941f4e921e5014,海怡湾畔,113.587213,22.37121
5df26dce86a3447493fa3eef049d70e2,渔村,113.589867,22.37022
2deefd90ab2b49389f1270b3c0edfdab,港湾一号,113.595384,22.368055
25f0252839cf42fe9f9abde1a9334d44,唐家市场,113.592986,22.363297
c79b96ca324e4609a9222450070e4fdc,唐家,113.592342,22.358032
719a4f67dfb54822a9cdb8d3aec1518e,白埔路口,113.589777,22.35421
3a36a475daf74127a2584ea4dd34c223,中山大学,113.587692,22.350598
f038d1208afb4d8db26f7d97be5285bf,鸡山,113.589063,22.340107
0df76527737e43739d69acf8e5636513,鸡山南,113.590275,22.337194
3d9588263fa04ba69d44670f473204e0,叠石,113.59766,22.329015
0b9a45902b9e45c3af50d106a8ed57e4,银坑,113.598778,22.321192
c101e8bd487246969dc8478a2ac81957,银星花园,113.5949,22.318023
ee71368ca1c949f488358f6e92b72caa,凤凰湾,113.588602,22.31789
0f9c6f36c22549f0b1a4817dc75c5be6,美丽湾,113.578558,22.311272
4eaaa0b67ed748049f10e256833a1db3,契爷岭,113.576273,22.306969
4ed3fc3329d745f3ae312d39c8583619,水拥坑海天公园,113.571681,22.301553
40f98714310c45f083ee5b392bf1e4cd,中大五院,113.568775,22.299097
a276c4c2df2a4e5297357849c65dea86,华子石东,113.567525,22.2945
23f7979ab7804ef6abb314ecdac4693f,凤凰北,113.566498,22.289968
599e939db4134f2a9e82e6dfdaf6941d,邮政大厦,113.569861,22.284594
008ed6992df240f18136f3d2b9b3cfb6,百货公司,113.573468,22.278952
1ae21373a3c34426ae9681b7969a50c1,湾仔沙,113.573612,22.275305
75b09c530dba42118c92172a9f7c2efd,公积金中心,113.573682,22.271912
bdc5b951ae9c4d3b893222e232a6c617,海滨公园,113.576517,22.265078
c61680ebbd2e4a5ab47eabfd5be10242,九洲城,113.574075,22.259419
5e0caae765384e649e808478ebae3a16,吉大,113.571232,22.254808
b1384a9121ec4d07b238c138d4d4aeca,交行大厦,113.573995,22.2504
436461cc55fe41708eacccae603b1851,珠海电台,113.583713,22.25084
848dfe15e2c54241b4d27523bf099885,洲仔,113.586975,22.246781
813904aafaad4afcbfa2f3ed749274e8,九洲港,113.5863,22.243267
bc3dc8f8be3449bf9541af1fd5c7c78f,九洲花园,113.582548,22.244213
4c91cbcdb5544895ab8e25fc29a5016e,情侣南路北,113.579528,22.24143
c3aaa58c9c3d47d7abf4255f003999e0,宏海湾花园,113.578281,22.236687
a7c349dcda5848098465bfd41be1f2e8,全球通大厦,113.58175,22.23559
72bfdcf955b5413da6b6e65bb64db0fd,大桥口岸枢纽,113.570376,22.211029
36863b8f2496408d8c8f86df08812f20,上冲检查站,113.500492,22.27685
28986fdc88154af6b2ed199abc46746f,长沙圩,113.502461,22.277592
e636fbba736a443a8c6295d6ed3447f1,公交花园,113.507889,22.273581
ca2e4fcfc058428b8f8c29b5b40ae7d8,城轨明珠站,113.510167,22.271267
a8caa3b3ec8b4173bfed0295b2e8d8bf,上冲,113.515777,22.268312
a2fa919d08b7410eaf16c1d599aff461,新香洲万家,113.52119,22.269133
524eb8f2bfaa4f5aac2efff65c9ce2e0,安居园,113.52539,22.269772
02ed2a23aea6482580dbdba1ccf686a9,红山、仁恒星园,113.530905,22.270603
530eb74e52fc41f288d24e7657f2e688,香洲区府,113.537178,22.271607
cbdd343020994d3a82e1b0228ed0f275,南村,113.540412,22.272163
a35d624de4644a9caf3940137c2ad444,新村,113.549337,22.273715
f6d09ff9249e443ba57ac9357a1b9e04,银桦新村,113.554864,22.274367
dcd1492852f34feda2783ef81fdcbfe3,滨海楼,113.560305,22.274048
7d473e25b8694c72ad48088bdfe0ce11,二中,113.567777,22.272932
07288e0340e54554a13e3a077bd66fd9,湾仔沙,113.573862,22.275837
bb53ac35f6384f19b87b28fabb92c0da,百货公司,113.572569,22.280486
c2bf1df7098d4664b3ee2857d21b2790,邮政大厦,113.569485,22.28549
76368420b06240479892002d8e244aed,翠香中,113.566067,22.285338
33f6ed9b192943c190b43d3b9710f026,香洲,113.562183,22.282487
bbe02764036c4666bc5edf2fefe90a4d,清华科技园,113.581236,22.346881
1ccdaa8154744e5189dda7e4051abaed,中大南门,113.584553,22.34391
f038d1208afb4d8db26f7d97be5285bf,鸡山,113.589063,22.340107
0df76527737e43739d69acf8e5636513,鸡山南,113.590275,22.337194
3d9588263fa04ba69d44670f473204e0,叠石,113.59766,22.329015
0b9a45902b9e45c3af50d106a8ed57e4,银坑,113.598778,22.321192
c101e8bd487246969dc8478a2ac81957,银星花园,113.5949,22.318023
ee71368ca1c949f488358f6e92b72caa,凤凰湾,113.588602,22.31789
0f9c6f36c22549f0b1a4817dc75c5be6,美丽湾,113.578558,22.311272
4eaaa0b67ed748049f10e256833a1db3,契爷岭,113.576273,22.306969
4ed3fc3329d745f3ae312d39c8583619,水拥坑海天公园,113.571681,22.301553
40f98714310c45f083ee5b392bf1e4cd,中大五院,113.568775,22.299097
a276c4c2df2a4e5297357849c65dea86,华子石东,113.567525,22.2945
23f7979ab7804ef6abb314ecdac4693f,凤凰北,113.566498,22.289968
599e939db4134f2a9e82e6dfdaf6941d,邮政大厦,113.569861,22.284594
008ed6992df240f18136f3d2b9b3cfb6,百货公司,113.573468,22.278952
3a86e2dd1f9d40a28a2b1530a83aff1d,湾仔沙,113.57337,22.275273
caa5fd1dbed14632875158d5dbe79ed9,二中,113.569898,22.273832
3f5fe2cf0b864952a5749816f7cc025a,光明街,113.56579,22.276075
07c2578e871445f99a9bd292e9f79b1e,夏美,113.565302,22.279038
10c2714520bd4837ba21855f62bfbbeb,香洲总站,113.561218,22.282062
d2817c40295047538b26edfdb575795f,八八八街,113.558758,22.280433
bf8249f2869949bbbf1aa3518b0caaab,农信大厦,113.553837,22.280537
11cf5a15826843a0865c89217fd6a207,山场市场,113.551608,22.283057
4948f744bef0495a9c96234a4c485ceb,山场路中,113.548675,22.282432
9298197e3e1241e6b0da85ca05683ce7,电视台北门,113.544887,22.28108
9e9878ac011f4c708a2ffddb7f077685,报业大厦,113.540922,22.279783
841c54b8bda74a2d8a18a9edb69e5d3c,金桦花园,113.5391,22.27786
5e22f0319c08415388937b49dec57502,体育中心南,113.534788,22.274275
a6c0cf8ed5bc4d0e90a987291eb2a626,拱北口岸总站,113.550794,22.220994
421f5f2d56174a4c96e60274bc7c61c6,凉粉桥,113.5457,22.229736
b2818fe2d54f470dbf70bb83e4bb2442,合罗山,113.538497,22.232272
4574a5dd01b640a29d52ecc12c1305bf,供水总公司,113.535073,22.233497
8e7dc3b5d90040b5858f19d0a5b8e1fd,白石南、银石雅园南,113.530995,22.234952
8fb2e930f0aa41a290cd6ed6154b970d,前山西门,113.51971,22.241195
2777b89496e04e8eb95a5d893069e856,明珠商业广场,113.515975,22.247644
7dd148ecdeb34182863c45395ef1373f,明珠中,113.515442,22.25245
6f4c6893a88a4767a664109e973e6e28,翠景工业区,113.515094,22.255697
922ee928169a4afc944efd803aa4cd0d,招商花园城南,113.516023,22.257697
ed6ac5b91f964d70b53b8a1db52240ff,招商花园城,113.520621,22.259155
0905277cc6554ebca615cf3bf3ff742a,翠微市场,113.520498,22.264355
bd8cbca669c743f69dd1edf520d707f9,恒隆学校,113.520112,22.26794
a2fa919d08b7410eaf16c1d599aff461,新香洲万家,113.52119,22.269133
524eb8f2bfaa4f5aac2efff65c9ce2e0,安居园,113.52539,22.269772
02ed2a23aea6482580dbdba1ccf686a9,红山、仁恒星园,113.530905,22.270603
530eb74e52fc41f288d24e7657f2e688,香洲区府,113.537178,22.271607
cbdd343020994d3a82e1b0228ed0f275,南村,113.540412,22.272163
a35d624de4644a9caf3940137c2ad444,新村,113.549337,22.273715
c6be174e689b463c9c5740c1f0b762c8,银桦新村,113.554567,22.274443
dcd1492852f34feda2783ef81fdcbfe3,滨海楼,113.560305,22.274048
7d473e25b8694c72ad48088bdfe0ce11,二中,113.567777,22.272932
98f55ef59a634618b1121902d9e9774c,人民医院,113.57092,22.276657
07288e0340e54554a13e3a077bd66fd9,湾仔沙,113.573862,22.275837
bb53ac35f6384f19b87b28fabb92c0da,百货公司,113.572569,22.280486
c2bf1df7098d4664b3ee2857d21b2790,邮政大厦,113.569485,22.28549
76368420b06240479892002d8e244aed,翠香中,113.566067,22.285338
33f6ed9b192943c190b43d3b9710f026,香洲,113.562183,22.282487
a6c0cf8ed5bc4d0e90a987291eb2a626,拱北口岸总站,113.550794,22.220994
91e8e071fc5c4265a63ac355637ce77a,银都,113.549015,22.229355
64a6f686ccc94e34924df73495c53a11,粤海东,113.553078,22.227553
682f218be8834d97bcc77e65e3f88ed2,日华花园,113.558473,22.22898
efcdd6d3f5be4bb09215c8c593c63f42,情侣南路南,113.562242,22.233377
99517284a3124fae8d2cc3147362b8af,水湾头,113.566132,22.23624
c069419cf00a49de952430302197c66b,南油大酒店,113.56767,22.241863
29e4ad0fa2f14e33b882b462f655ebff,吉石路口,113.56566,22.243958
c5890b67cec04468863f673f09954652,建业一路,113.56294,22.245602
48f3e8d2d7814d448a17fceb55a515d4,国土资源局,113.56192,22.248177
dadd3dcc41b74b8398de62ad184da6b2,白莲新村,113.562712,22.250877
20d4783d4d97455e87c8b96630543241,四中,113.56672,22.252762
53519b2e3e3c4d0a880fb66aa98b21b0,高级技校,113.56831,22.254782
afd4776af78443728a56089ed0845c9d,通信大厦,113.570783,22.256908
c110584a68f4421f98dd76851bc07eae,九洲城,113.573995,22.259017
f003226a314d43de8bf497b8f721db5e,烟墩山,113.579455,22.257872
3a4fe131f5f64fa78791c2e0c59e7b31,君怡花园,113.581995,22.257363
011884d9dfdb4c52b41a566c1eba77aa,海滨泳场,113.584863,22.25872
7d5b179dce7642de9e1f865c5e298f5c,珠海渔女,113.584653,22.263875
a2919f4d2c144974a2893e18c3309980,城市阳台,113.578248,22.265188
5f7de5f0e18340d69557124f8bf30172,香炉湾,113.576637,22.272165
57f4b98f6cad497f9c0873f99559efea,名亭公园,113.576422,22.277882
5e0098333f4044ceaf45d2a513c0f75b,人民医院,113.57049,22.27665
caa5fd1dbed14632875158d5dbe79ed9,二中,113.569898,22.273832
56f5f3ed2ae349cd86d689aa604f919e,胡湾里,113.564495,22.271617
a7c3d9bc01dd482182cc43f2f0fbc573,警察学校,113.559705,22.269827
69573456adde43d5bd8f9c708a193b60,保健院西门,113.554358,22.271684
e7a46681b64247a2b95c1028b1809bd5,兴业中,113.552692,22.278815
11cf5a15826843a0865c89217fd6a207,山场市场,113.551608,22.283057
4948f744bef0495a9c96234a4c485ceb,山场路中,113.548675,22.282432
9298197e3e1241e6b0da85ca05683ce7,电视台北门,113.544887,22.28108
9e9878ac011f4c708a2ffddb7f077685,报业大厦,113.540922,22.279783
841c54b8bda74a2d8a18a9edb69e5d3c,金桦花园,113.5391,22.27786
6fbee86d969742b68369b8d44b9e8dfb,体育中心南,113.534325,22.274161
162fcc8f330c486c8d6990e61016a8e0,圆明新园,113.535093,22.242713
0397e6786cb246ffbf9f7d5b69ffc780,圆明山庄,113.536778,22.242092
84cdb7956d124bf38baced747b08ecef,兰埔东,113.53951,22.241575
65016e7a9fda4ffe897cdfc8a4d71bef,桂花北,113.540732,22.237437
1d8912079e874a5697a6e1995e925d04,桂花中,113.542323,22.232722
543831c74fd24756acc0489a3f29fa6b,凉粉桥,113.545528,22.229622
91e8e071fc5c4265a63ac355637ce77a,银都,113.549015,22.229355
64a6f686ccc94e34924df73495c53a11,粤海东,113.553078,22.227553
682f218be8834d97bcc77e65e3f88ed2,日华花园,113.558473,22.22898
efcdd6d3f5be4bb09215c8c593c63f42,情侣南路南,113.562242,22.233377
99517284a3124fae8d2cc3147362b8af,水湾头,113.566132,22.23624
c069419cf00a49de952430302197c66b,南油大酒店,113.56767,22.241863
0cc31f10d3874850bad217db58130520,水湾北,113.569225,22.246693
bb2029e1ae9b45fb92da75bbea92d55e,吉大,113.57111,22.253713
c110584a68f4421f98dd76851bc07eae,九洲城,113.573995,22.259017
273f1dc6398f4538b550f4f742e25c36,海滨公园,113.576812,22.263787
1d8fd636e16a43628cef5963e3305a11,望海楼,113.576432,22.26786
9d5d649c29d44fea99d1d41db6785657,公积金中心,113.574893,22.271218
07288e0340e54554a13e3a077bd66fd9,湾仔沙,113.573862,22.275837
5e0098333f4044ceaf45d2a513c0f75b,人民医院,113.57049,22.27665
caa5fd1dbed14632875158d5dbe79ed9,二中,113.569898,22.273832
3f5fe2cf0b864952a5749816f7cc025a,光明街,113.56579,22.276075
07c2578e871445f99a9bd292e9f79b1e,夏美,113.565302,22.279038
0d4040ab5ff64da19b24fdb8a633f900,香洲总站,113.562022,22.282744
165e2113d18647308a2b0a6ccb102c95,紫荆园,113.560763,22.28613
679992f249d248b19f7c0180d20bce56,党校,113.558558,22.288361
d4d0d7b1359748a19ba3ed46fa0197d2,大镜山,113.555303,22.287544
8d14948c5dc544a4a98e32e8cf1fb64a,古元美术馆,113.547983,22.286064
2be342d214ab4033a8a077e7c8741b04,迎宾北路口,113.544006,22.285075
e64d27af56fb46a28e9553d28f33e263,香山驿站,113.536606,22.283233
86b2e926b22b4cf7a8aff3ca3f325955,梅华中,113.528942,22.281306
823f04d9246443b6bb07ea86f241a249,创业路口,113.526667,22.276994
99a7e21650ce4a35ada80780050ec446,红山北,113.529975,22.273787
6fbee86d969742b68369b8d44b9e8dfb,体育中心南,113.534325,22.274161
5763b6ab12454a6c9245fe107730c470,南屏科技园,113.466697,22.221247
66935f8a4904468b9a6d43bb58a6b383,屏北二路西,113.470803,22.222542
b1561a463ce0475cb0c410a1ccd5215f,屏北二路中,113.476803,22.22431
de7ac126fe614dd3bff09f69f6b210f3,兴业公司,113.480905,22.225577
a3f2acc0590e419a854db35a6d2fdc20,攀云购物公园,113.484225,22.226567
ce561539ac1441c68a2c08e74d982adf,科技新村,113.489278,22.228632
5cd0e5ba86904daa9b981da48f7fa866,南泰明湾,113.492762,22.23032
380e7316e6a94e81bc61f52063582602,农民新村,113.49594,22.231807
5094076da28d47c88c4c8052f409a877,南屏大桥西,113.500082,22.231387
94389c68c4cd491eb1a51e978a1663e9,中臣花园,113.499805,22.239735
99f4f14d44284717899842566d5f34b2,福石,113.503803,22.24185
6b458db03764421ca451fbd976078a27,造贝,113.506735,22.243987
a0a1afe340f34c9ba161e8b309f1bada,人力资源中心,113.510794,22.247403
0af860e516f247b9825c8c65ae9c1ce4,海纳石鸣苑,113.520192,22.2551
ed6ac5b91f964d70b53b8a1db52240ff,招商花园城,113.520621,22.259155
6a9c37fccaf04da9a3582cc6349fd1a7,翠微市场,113.520519,22.264456
7adf1befb75e4635bb583a75629ac00b,恒隆学校,113.520142,22.268044
a2fa919d08b7410eaf16c1d599aff461,新香洲万家,113.52119,22.269133
524eb8f2bfaa4f5aac2efff65c9ce2e0,安居园,113.52539,22.269772
02ed2a23aea6482580dbdba1ccf686a9,红山、仁恒星园,113.530905,22.270603
530eb74e52fc41f288d24e7657f2e688,香洲区府,113.537178,22.271607
cbdd343020994d3a82e1b0228ed0f275,南村,113.540412,22.272163
a35d624de4644a9caf3940137c2ad444,新村,113.549337,22.273715
c6be174e689b463c9c5740c1f0b762c8,银桦新村,113.554567,22.274443
169597c266274c7483b174640535eca6,桃园新村,113.559913,22.27623
d990386ef4bc457cb2c691512acce341,南坑,113.560942,22.278207
33f6ed9b192943c190b43d3b9710f026,香洲,113.562183,22.282487
c4fd29fbba30400a86bcf89eacf39f17,神前总站,113.577227,22.312155
0f9c6f36c22549f0b1a4817dc75c5be6,美丽湾,113.578558,22.311272
4eaaa0b67ed748049f10e256833a1db3,契爷岭,113.576273,22.306969
4ed3fc3329d745f3ae312d39c8583619,水拥坑海天公园,113.571681,22.301553
40f98714310c45f083ee5b392bf1e4cd,中大五院,113.568775,22.299097
a276c4c2df2a4e5297357849c65dea86,华子石东,113.567525,22.2945
7ac9625b0bae41db92e4306fd4f6a039,华子石西,113.564342,22.291458
53c548d7b59448f8a751fd69ba010822,梅华东,113.562319,22.290275
679992f249d248b19f7c0180d20bce56,党校,113.558558,22.288361
d4d0d7b1359748a19ba3ed46fa0197d2,大镜山,113.555303,22.287544
8d14948c5dc544a4a98e32e8cf1fb64a,古元美术馆,113.547983,22.286064
2be342d214ab4033a8a077e7c8741b04,迎宾北路口,113.544006,22.285075
e64d27af56fb46a28e9553d28f33e263,香山驿站,113.536606,22.283233
86b2e926b22b4cf7a8aff3ca3f325955,梅华中,113.528942,22.281306
a5fe2d59c2a14ba3bf0eaf2fcc9a75de,珠海一中,113.521739,22.279836
a21564bc57f94cca8059ee0d11777c76,蓝盾路口,113.516772,22.278908
b95990cb66eb43e9a264f645ba73ec14,恒雅名园,113.509167,22.277536
02a32ad453634cdbb60ec834bc26e0c1,长沙圩,113.503108,22.277708
5d8282b93a464117919ebbae089c9a58,坦洲路口,113.497815,22.282215
0c959c2b90bf410aab978b5ef131f359,南溪,113.496258,22.28526
2d4e4f95f280466985bec2cc2fe99094,沥溪南,113.493293,22.289791
9dcc06b4f9ad4d0eaaa4d03de547674e,沥溪,113.492092,22.291088
150ed9ba369841d7a26803d5f25401df,沥溪北,113.488758,22.294981
a61ffb84d25642c78b01cdfa8f1e4e13,和平市场,113.482735,22.301878
9c24286886844540be4493d347836ba7,界涌工业区,113.478535,22.3066
8bb769aca500471aa396e5d6a8009ea5,界涌,113.476548,22.307967
493805f7d4934341bae72abe40647fde,安骅汽车,113.472153,22.311808
f269857bfee449a2a3454057914b2341,沿海高速路口,113.470122,22.316872
bc7aef4be9774bbc8c95b134e0717aca,界涌北,113.468533,22.319869
34609fa1dddd47189336c3e70987c2a0,心岸春天花园,113.463636,22.316992
ef92bcb3138c4ceaa34c9f011a24301e,上冲总站,113.510862,22.268773
b8300fe233fc48e1bc96d00efa0ecb2b,翠屏路,113.511797,22.267283
a8caa3b3ec8b4173bfed0295b2e8d8bf,上冲,113.515777,22.268312
8ca8c1d87f744f379ab96ecb24791335,恒隆学校,113.519978,22.267983
151aa26691334ab2a9d061b1aac40f9d,翠微市场,113.520397,22.264581
5d3cf54ece3c4dbeac527d2ff6045f39,招商花园城,113.520456,22.260954
b507bb8f7e5046388bdd4eec349fde37,艺术高中,113.523818,22.256603
4980698f7d444493bb1435014abcf962,暨大北门,113.53082,22.255827
9050f945220a4858b1d43af8ae39da2b,卓雅花园,113.535133,22.255972
61f10b88d0674b59a5265e0d925a253d,武警支队,113.53978,22.256843
87211d17022644288271d91e2945a4af,柠溪,113.546438,22.262802
8a177b2211cb4fe2a7281d007fa0eeab,香宁花园,113.55135,22.267502
e103a53268884930a8c823e734266c33,南香里,113.556232,22.271768
dcd1492852f34feda2783ef81fdcbfe3,滨海楼,113.560305,22.274048
7d473e25b8694c72ad48088bdfe0ce11,二中,113.567777,22.272932
98f55ef59a634618b1121902d9e9774c,人民医院,113.57092,22.276657
3a86e2dd1f9d40a28a2b1530a83aff1d,湾仔沙,113.57337,22.275273
75b09c530dba42118c92172a9f7c2efd,公积金中心,113.573682,22.271912
bdc5b951ae9c4d3b893222e232a6c617,海滨公园,113.576517,22.265078
f6adc446d4b540618d2ec16586a0342c,九洲城,113.574193,22.259512
47cee19858ec4acab0b1c114748aba06,中医院,113.573683,22.25579
20b8bd142e7b456782568e181c2e45f9,信海大厦,113.575137,22.254298
015e3a94ac3a4a0e98df3f3012c43faa,海滨南,113.578543,22.256638
45a6ed8f364b4632bd29b105aee42718,吉大总站,113.57911,22.25802
450b50fd54c745a9a729b7835400c3d5,吉大总站,113.578553,22.25835
a632d4a38551486184f58eb3cddea0e4,免税商场,113.57551,22.256907
7dba253a58264ad796db9a823e03647f,中医院,113.573787,22.256383
4281c54649f14958bfaabd3f8d2624bd,景乐南,113.573857,22.253587
735927312ac1455c8e91447dd97f69f7,交行大厦,113.574047,22.250847
8a8a997c548545e998940a0036dabd43,中电大厦,113.5652,22.24795
c493b1894d7d4ed091eb537b45d032dd,白莲洞公园,113.558044,22.24575
f3899037c2144dc89c77e968159f8f96,竹苑,113.552287,22.243057
d7db6ef4ddcb45b69f166e10751a2d44,摩尔广场,113.546222,22.237328
1d8912079e874a5697a6e1995e925d04,桂花中,113.542323,22.232722
b2818fe2d54f470dbf70bb83e4bb2442,合罗山,113.538497,22.232272
4574a5dd01b640a29d52ecc12c1305bf,供水总公司,113.535073,22.233497
bd53d56de95142cb9441d3b110b3a407,婆石,113.530481,22.232247
4cb7b6d77c0e416badd784a240033c6a,拱北工商分局,113.530703,22.225817
662d8288ca1b41658844f236916e8080,侨光小学,113.533244,22.222806
4c9d4a20631e48498519f60dd02aacf9,侨光西,113.533402,22.21825
a20a59c4942d4fe782642ecfa76f576e,跨境工业区北,113.531475,22.212331
e39aeb8d1fe443da8b5fcffb8c9ef1bd,上冲总站,113.509999,22.266798
302f544e41b5498ab8303745ae0141e0,嘉园,113.511064,22.257017
92de44b4dbf545af9174104cec4c0131,翠微,113.514633,22.259644
6d81e5bedd494562b88060c38c8c5b03,明珠北,113.5143,22.263003
a8caa3b3ec8b4173bfed0295b2e8d8bf,上冲,113.515777,22.268312
b1fe621296904237be33a6f6c9d8e6f9,翠前小学,113.519642,22.271748
0d83f6bbb05a4c80975947353942fac6,旺角百货,113.52038,22.274353
f4d3e021135449e69c7b5a4eb09eaae0,富康花园,113.524775,22.275022
ef82458c3f814267bc611297adb9f496,体育中心西,113.527058,22.276203
37d62ef2227841f8b71b5669f238b76b,梅华中,113.528383,22.280892
c93be364f095408b849166e142672c55,行政服务中心,113.534193,22.281038
54ca08e1a2cd4ab494abde542e16fc48,金桦花园,113.537468,22.27744
ea105e6643f94a1ca1a1c4afdcfee795,名街花园,113.544562,22.278865
80305d1b245c45a8b893cd73ed1a3bb9,农信大厦,113.551082,22.280158
e454b98312f142ad83b50b8145368775,兴业中,113.552958,22.275912
4b71794dd13e48e0ab48786977723df8,保健院西门,113.55415,22.271964
a12c061f76a24150b1f5cfe77f61858b,香宁花园,113.552978,22.269285
042cef28bc0a4945948bef7957d5fc95,吉柠北,113.54918,22.263947
e01ef9f39eaf45abbfa4b1022f8d638f,吉大水库,113.561083,22.257793
20d4783d4d97455e87c8b96630543241,四中,113.56672,22.252762
53519b2e3e3c4d0a880fb66aa98b21b0,高级技校,113.56831,22.254782
afd4776af78443728a56089ed0845c9d,通信大厦,113.570783,22.256908
47cee19858ec4acab0b1c114748aba06,中医院,113.573683,22.25579
20b8bd142e7b456782568e181c2e45f9,信海大厦,113.575137,22.254298
436461cc55fe41708eacccae603b1851,珠海电台,113.583713,22.25084
848dfe15e2c54241b4d27523bf099885,洲仔,113.586975,22.246781
813904aafaad4afcbfa2f3ed749274e8,九洲港,113.5863,22.243267
bc3dc8f8be3449bf9541af1fd5c7c78f,九洲花园,113.582548,22.244213
4c91cbcdb5544895ab8e25fc29a5016e,情侣南路北,113.579528,22.24143
c3aaa58c9c3d47d7abf4255f003999e0,宏海湾花园,113.578281,22.236687
a7c349dcda5848098465bfd41be1f2e8,全球通大厦,113.58175,22.23559
72bfdcf955b5413da6b6e65bb64db0fd,大桥口岸枢纽,113.570376,22.211029
60a11d24fdfd4005ba1623470672c29b,心岸春天花园,113.463294,22.317228
401de0c799b94a419ab7bea64f0287df,安骅汽车,113.471847,22.31185
1686aa776662491f8689ffda23d2b52c,界涌,113.47593,22.308063
f070d802e0744a5fa7cfe40b7f89672a,界涌工业区,113.47883,22.306035
f49a5e71eb2b46319fcf5595658c32a5,和平市场,113.482123,22.302252
eb8d11643b434893a7e67dd39689ae6a,沥溪北,113.488956,22.294311
8f5e0a8774704924964c60cbf965e466,沥溪,113.491253,22.291608
a07ec8df41064ff3af434b8c52d3855b,沥溪南,113.49354,22.289019
fadd33c3f41a499d9b596c5cbcd3eb31,南溪,113.495853,22.28555
4ba4d7327a574ff394b2d75d65d916f5,坦洲路口,113.49699,22.283317
28986fdc88154af6b2ed199abc46746f,长沙圩,113.502461,22.277592
e636fbba736a443a8c6295d6ed3447f1,公交花园,113.507889,22.273581
ca2e4fcfc058428b8f8c29b5b40ae7d8,城轨明珠站,113.510167,22.271267
0f23a5f8c9b74961b0b959daa6389f5e,明珠北,113.513939,22.262794
4f81f618e310459999b3866b2f20c2ac,翠微,113.514278,22.259892
c6c4b8a19a8c487a8719e1ce018fff69,翠景工业区,113.514747,22.256042
2376630ca548456dbf375111abdce37a,明珠中,113.515175,22.252183
35cba6c8878041a698fb52adc2fc8ff7,明珠商业广场,113.515553,22.248461
25107e5078d348839dfd616ed684f08a,漾湖明居,113.516697,22.241025
2b9643296aac4842bc848b2c4f32764e,明珠山庄,113.519231,22.239644
23888a4c15f04339835b4b4891cd5987,白石南、银石雅园南,113.531312,22.234682
0a5eb494705347cc86638ae8092c9fd7,供水总公司,113.53576,22.233103
e9a46a03322c42aeaa02f68c3ea2f7dd,合罗山,113.539481,22.231647
543831c74fd24756acc0489a3f29fa6b,凉粉桥,113.545528,22.229622
01cbf4a1bad149709c216af71c0eecf5,拱北,113.547936,22.22455
1b28dbce6e754f4791ce00dc630fa059,拱北口岸总站,113.550614,22.220531
00395fd5703343daa6a68f2753003865,城轨珠海站,113.545636,22.218814
3dd7a19e5f8c44ea8b69f84f508727bb,拱北口岸,113.546681,22.219494
d4905085c0ad4e9ab0124f5208413d5a,拱北,113.548206,22.224625
bb2d6d04450047ec9964bffe8d1d8f19,华侨宾馆,113.547142,22.233453
6fd0b21650594cb7a3eba22ab67cf61f,摩尔广场,113.546483,22.236928
c99c7cc164c04b9aaae2aa18949aa120,隧道南,113.545811,22.243247
87211d17022644288271d91e2945a4af,柠溪,113.546438,22.262802
8a177b2211cb4fe2a7281d007fa0eeab,香宁花园,113.55135,22.267502
e103a53268884930a8c823e734266c33,南香里,113.556232,22.271768
d990386ef4bc457cb2c691512acce341,南坑,113.560942,22.278207
962dbf43680a4ae399883664c79363a5,香洲总站,113.561775,22.282589
165e2113d18647308a2b0a6ccb102c95,紫荆园,113.560763,22.28613
c3beb3f596f547099aef3950c1319a0a,梅华东,113.561439,22.289489
305b1b42ec024efaabc519750ecf2f3e,华子石西,113.563806,22.290853
a9a1d178069940798e0762d177401360,华子石东,113.567497,22.294064
977a7c41c0ac4d8ca3bc3d848b44f4a4,中大五院,113.569892,22.299831
7ae55b46c6384240bb4e2bc7a1d65f71,水拥坑海天公园,113.572142,22.301614
b70a569fd4ab4797b7b0e7adf01f7a1d,契爷岭,113.575442,22.304927
c4fd29fbba30400a86bcf89eacf39f17,神前总站,113.577227,22.312155
36863b8f2496408d8c8f86df08812f20,上冲检查站,113.500492,22.27685
28986fdc88154af6b2ed199abc46746f,长沙圩,113.502461,22.277592
b1ac16f041ca4e1dac2896041cacaf3e,恒雅名园,113.508344,22.277119
ff95433ca04a4db19ca5b3430b65dd39,一职校,113.51323,22.276297
81aa8693361e483cbf39b60ea1e30b79,葵竹苑,113.519075,22.276098
0d83f6bbb05a4c80975947353942fac6,旺角百货,113.52038,22.274353
f4d3e021135449e69c7b5a4eb09eaae0,富康花园,113.524775,22.275022
99a7e21650ce4a35ada80780050ec446,红山北,113.529975,22.273787
745ca831053c41ca84c8e0dea075034e,体育中心南,113.534636,22.274505
da270c6c9b2f4294847c9eb132c207ad,香华中,113.537575,22.275232
eb250b34c49c4162b4928c924de13ac2,香华东,113.541873,22.276047
c6204a70ee5b45d4822ac45576ae5681,南村东,113.543828,22.274462
4d047fe14f684d869b73754357a12eb2,公交新村,113.543943,22.269305
cb4317f7f5e447a1af96add83ed46638,石竹苑,113.543718,22.26535
0d3d1f8a30044b689b87694dc65c1e36,隧道南,113.5452,22.243733
2ddcef658a4e47ea9d5aec3589f04401,北岭,113.546002,22.23936
c7a1c6413c8b44219dd1a4d8d265ac62,华侨宾馆,113.546868,22.233377
583401abc31545abace9cd3f6c79b58c,拱北,113.548025,22.223978
85d580caa8c945cc9ed060b03bf949bd,城轨珠海站,113.545806,22.218839
581e33e56f3f4206abce4d3b34121ed3,城轨珠海站,113.544956,22.21905
3dd7a19e5f8c44ea8b69f84f508727bb,拱北口岸,113.546681,22.219494
ce11b8075aca4ec69d25d21b6149e395,拱北,113.548086,22.223856
421f5f2d56174a4c96e60274bc7c61c6,凉粉桥,113.5457,22.229736
b2818fe2d54f470dbf70bb83e4bb2442,合罗山,113.538497,22.232272
4574a5dd01b640a29d52ecc12c1305bf,供水总公司,113.535073,22.233497
bd53d56de95142cb9441d3b110b3a407,婆石,113.530481,22.232247
afa5a56f9a8c4388b1919bfde8ec9840,海荣新村,113.524408,22.234075
4222aa3bb0fa48968345abf928a0795d,城轨前山站,113.520867,22.237278
a4e46bf1f0f548b0a8a4592b471b633f,华发新城,113.514027,22.229828
56ee2d83a3284c3199b30a46bd20864e,北山、华发商都,113.505588,22.22619
38b4385f1f2f4e36b03cc6cc4de185a7,南屏街口,113.501315,22.224133
504a8468cc464124a6466d1eaf5707d1,南泉路口,113.497602,22.22272
3986dcecc4954de084b003c2ba36332d,南屏中学,113.493527,22.221692
a9259ffdb39841659888f8130e36d85d,公交柏宁,113.486543,22.220788
cba27e123fd445c19dee13a495f9b5e0,南屏水库,113.480923,22.219297
0af93b9a66e24e9aa793081b4be1aa00,河排,113.477265,22.218215
4211d26999784632b08284e370461c27,珠光汽车公司,113.47139,22.216457
156cc0a0c28743ddac64b53d985704b0,广生,113.466437,22.214958
e76ed3de7ead41f1ab81888027b9b002,公交信禾物流,113.453617,22.210945
bc700e960016443992b76905388d0d7e,翠湾,113.447507,22.207963
ebf02771502b4df2aca85c5cd8735701,屏北三路西,113.441342,22.207633
779196aadeb043e4ad90eb3fff7154de,拱北口岸总站,113.550769,22.221061
d76417f9469b44ca900ca6f17d84e19c,水湾路南,113.554019,22.225375
f47c6daf4beb4429801f98840f987be5,粤海东,113.553307,22.227557
67cba7adbb3242fd839434fa1f53cfa1,银都,113.550138,22.229348
3776787d5ae8437cb542858ef09cfe9c,新市花园,113.54629,22.225728
bbe338777ec44be9916ca3330435bcde,第二人民医院,113.542277,22.225242
9acff0cdd30b476e930b07f9be4da297,炮台山公园,113.540262,22.227365
4425998d8ece4e6b92eb7c8c0eded2f1,夏湾新村,113.53657,22.226787
afa0c55b7f564649ab2db40ad458110d,粤华西,113.5372,22.223561
662d8288ca1b41658844f236916e8080,侨光小学,113.533244,22.222806
7ea3c8ff965a4f66b743db8cdf34629e,拱北工商分局,113.530722,22.226217
47bc9de542694a1fb38ad8956b1f728d,港昌中,113.528856,22.228775
afa5a56f9a8c4388b1919bfde8ec9840,海荣新村,113.524408,22.234075
4222aa3bb0fa48968345abf928a0795d,城轨前山站,113.520867,22.237278
7c25590fbad046728ee82384c5c94b4b,漾湖明居,113.517219,22.240794
2777b89496e04e8eb95a5d893069e856,明珠商业广场,113.515975,22.247644
7dd148ecdeb34182863c45395ef1373f,明珠中,113.515442,22.25245
6f4c6893a88a4767a664109e973e6e28,翠景工业区,113.515094,22.255697
92de44b4dbf545af9174104cec4c0131,翠微,113.514633,22.259644
6d81e5bedd494562b88060c38c8c5b03,明珠北,113.5143,22.263003
37a3e7fa629144a993ba66afbe97fbc1,城轨明珠站,113.510678,22.271503
489820f3bc364365aeb8c04f611bcb6e,公交花园,113.507536,22.274264
815ce8b880a347f6a189dc48b6fec8b7,长沙,113.505873,22.281098
12a78a457f30494c8fd35a7da4296a08,梅溪牌坊,113.50903,22.287343
ee9f1fb7d83a442ab30089b592b52b8f,农科奇观分站,113.513778,22.296606
47cea69e68c54c129f5b264facd4e4c7,东坑新村,113.516117,22.300747
f6c733baa12346dcab5306671f954414,东坑公园,113.516389,22.302294
fca77461122648a4ba432342bee1bf19,东坑市场,113.517669,22.306633
a1c1a2b412aa48818aefb596ef7acf87,东坑,113.518981,22.308925
f224794adb684c7eb1fb68c7bdf02615,普陀寺,113.52355,22.316039
36863b8f2496408d8c8f86df08812f20,上冲检查站,113.500492,22.27685
28986fdc88154af6b2ed199abc46746f,长沙圩,113.502461,22.277592
e636fbba736a443a8c6295d6ed3447f1,公交花园,113.507889,22.273581
ca2e4fcfc058428b8f8c29b5b40ae7d8,城轨明珠站,113.510167,22.271267
0f23a5f8c9b74961b0b959daa6389f5e,明珠北,113.513939,22.262794
4f81f618e310459999b3866b2f20c2ac,翠微,113.514278,22.259892
c6c4b8a19a8c487a8719e1ce018fff69,翠景工业区,113.514747,22.256042
2376630ca548456dbf375111abdce37a,明珠中,113.515175,22.252183
35cba6c8878041a698fb52adc2fc8ff7,明珠商业广场,113.515553,22.248461
25107e5078d348839dfd616ed684f08a,漾湖明居,113.516697,22.241025
4e5f3b98cc6e4bb09e844826e2e212f8,明珠山庄,113.519303,22.239697
588b70f2c1984e5395a5a1d37ab5a3f9,白石、银石雅园,113.532355,22.238658
28e142b3b19b48b8a7c8fcbf3ceae8e8,兰埔、富华里,113.537595,22.23937
da1711ac05844f93bb6e4fd63d906afa,竹苑,113.551902,22.242717
ebd354adb04f491c81bd23f03d004eaf,白莲洞公园,113.556677,22.243638
4a69e6356e4f47a49a42c0e4acaf376a,伙工殿大厦,113.561035,22.244055
c5890b67cec04468863f673f09954652,建业一路,113.56294,22.245602
faaced3190de445aaeb5df1176146098,中电大厦,113.567242,22.248217
bb2029e1ae9b45fb92da75bbea92d55e,吉大,113.57111,22.253713
c110584a68f4421f98dd76851bc07eae,九洲城,113.573995,22.259017
45a6ed8f364b4632bd29b105aee42718,吉大总站,113.57911,22.25802
d12054ed66fe4625851fcd519cf1e5cb,云顶澜山,113.50522,22.287875
0e0b3410d34a49aea05e2846a2cf3bd0,公安村,113.5135,22.286511
530d3d10b16c4411a6b15ec8398c20b0,梅界东,113.518217,22.287356
d230b4bd28a545e085fbc375240bc125,一中东门,113.522942,22.284386
823f04d9246443b6bb07ea86f241a249,创业路口,113.526667,22.276994
43a6d27d86f34eeb9d223922cbcb94c7,体育中心西,113.527072,22.27484
1ecb38636fe246fa942593926ec11f14,三台石北,113.527658,22.26633
7786743d058e4bbaad94efec82493224,翠花苑,113.522968,22.263427
5d3cf54ece3c4dbeac527d2ff6045f39,招商花园城,113.520456,22.260954
b507bb8f7e5046388bdd4eec349fde37,艺术高中,113.523818,22.256603
66c6018522a2422f99a2832ef6ba6d50,暨南大学,113.525955,22.25256
54ef6a5001ec47d8b66e755949938e36,世邦广场,113.523967,22.247053
ea893d78bd704c1091d89755d0db04f7,瀚林苑,113.52315,22.244647
825e8bf471224fbaae2f4589baa50fb0,前山,113.521697,22.242539
5abc9e5ae11a4ac1bc30db65a48c710e,明珠山庄,113.519194,22.239858
f8ce0df0de944406ae4619499f02907b,前山站西,113.519412,22.235847
7f8cd74d8c4245a0ad34453798b51d74,十一中,113.521086,22.233514
ec9da01508db47fc867628d09d7dd9e5,前河东路中,113.524197,22.229903
fdcdeb58b63840cfa062b298ed00810c,港二路,113.527083,22.229256
bbc761d046ba40edaf19f1dcad869797,南湾总站,113.517761,22.215825
b14cbc9567c3497b975fcfe7fcf6c7e9,湾仔,113.529788,22.195861
47565060b73f406ebdbc4ede2c8b0e04,鸿景花园临时站,113.531053,22.200942
d997115076284d4c98090bc296264e59,湾仔中学,113.526206,22.205989
9964062b9b4648bc8c273b9dbb172dc3,南山,113.521065,22.210521
2d3c48b4b59a4098afd54e9bc198a2cb,竹仙洞,113.51635,22.213427
7c5dc86066fb45caa931e589d0bfbd04,北山工业区,113.509962,22.217615
36685bf5ef07423ea5f3e684cfb2da83,南屏,113.506003,22.222121
8a370e527c22416896ea5b53b65142ac,南屏大桥,113.501743,22.229403
94389c68c4cd491eb1a51e978a1663e9,中臣花园,113.499805,22.239735
99f4f14d44284717899842566d5f34b2,福石,113.503803,22.24185
6b458db03764421ca451fbd976078a27,造贝,113.506735,22.243987
a0a1afe340f34c9ba161e8b309f1bada,人力资源中心,113.510794,22.247403
c7927295285e4820aac9b32b2ccf0373,中山亭,113.520008,22.249097
5e8a3b45e3724c5ab1bfa5863d8ad66b,公交临时站,113.521889,22.247236
ea893d78bd704c1091d89755d0db04f7,瀚林苑,113.52315,22.244647
825e8bf471224fbaae2f4589baa50fb0,前山,113.521697,22.242539
588b70f2c1984e5395a5a1d37ab5a3f9,白石、银石雅园,113.532355,22.238658
28e142b3b19b48b8a7c8fcbf3ceae8e8,兰埔、富华里,113.537595,22.23937
da1711ac05844f93bb6e4fd63d906afa,竹苑,113.551902,22.242717
da26d80b8620427da210f16ac3753ab6,白莲洞公园,113.558078,22.245772
48f3e8d2d7814d448a17fceb55a515d4,国土资源局,113.56192,22.248177
dadd3dcc41b74b8398de62ad184da6b2,白莲新村,113.562712,22.250877
20d4783d4d97455e87c8b96630543241,四中,113.56672,22.252762
53519b2e3e3c4d0a880fb66aa98b21b0,高级技校,113.56831,22.254782
afd4776af78443728a56089ed0845c9d,通信大厦,113.570783,22.256908
c110584a68f4421f98dd76851bc07eae,九洲城,113.573995,22.259017
45a6ed8f364b4632bd29b105aee42718,吉大总站,113.57911,22.25802
42269f6aeb91419a8125c0b4700d52fa,保税区北门,113.493333,22.176373
84261994bd2843ae9a338b6e7747f99a,光联科学园,113.495352,22.173337
f1496edd297b4a8db7f4d5c92e1db44e,天科路北,113.49935,22.17127
3477624a22ec4306b88faaae7b42640a,天科路中,113.500578,22.16794
c067cb2ff3f445a5957cce4cf2680dee,国贸展示中心,113.50505,22.169444
e171423d8d534a86a5d03e363f08d1ec,珠海保税区,113.50864,22.171362
86ecce8883a542f3a13c0faedbff7099,南湾南路南,113.51202,22.173273
353b04c35a1a45f1bffa07241f1ac6ca,公交招呼站,113.211514,21.984739
9aac4fd1039c45a4b1654f7edb0acb96,国际会展中心,113.517714,22.176925
a00ca86cdf60455f9efc5c2cf8b38819,北大希望之星,113.520333,22.1802
9252d8c7fefb4808bd0226df9457dc52,银坑村,113.521381,22.182767
08dee0c6dde447a5883452967ed1e209,湾仔旅游码头,113.527982,22.193477
47565060b73f406ebdbc4ede2c8b0e04,鸿景花园临时站,113.531053,22.200942
471ee41a662c4fe9930c7284339980ce,湾仔中学,113.526988,22.20459
9964062b9b4648bc8c273b9dbb172dc3,南山,113.521065,22.210521
94f946a1c90e4436a52320d39f6c5a35,竹仙洞,113.516089,22.213992
15603eb91c0b4282a722c18904f1eb4f,仙桥路南,113.517294,22.217828
bb8f5db417d842e3b4b9008275b13883,东桥,113.515658,22.220933
a2586d7d2ee84b1d9aa82cf7969f60e6,东桥工业区,113.513875,22.225633
c56c424d5b014d99804f2e61caf1ca0b,华发新城,113.514525,22.229544
436d3a8bc6874a72a91be05912788860,华发新城总站,113.508456,22.236319
407d17baf58f4c9ebbf60d57ff4967e5,圆明新园,113.535247,22.242552
0397e6786cb246ffbf9f7d5b69ffc780,圆明山庄,113.536778,22.242092
84cdb7956d124bf38baced747b08ecef,兰埔东,113.53951,22.241575
da1711ac05844f93bb6e4fd63d906afa,竹苑,113.551902,22.242717
da26d80b8620427da210f16ac3753ab6,白莲洞公园,113.558078,22.245772
48f3e8d2d7814d448a17fceb55a515d4,国土资源局,113.56192,22.248177
dadd3dcc41b74b8398de62ad184da6b2,白莲新村,113.562712,22.250877
20d4783d4d97455e87c8b96630543241,四中,113.56672,22.252762
53519b2e3e3c4d0a880fb66aa98b21b0,高级技校,113.56831,22.254782
afd4776af78443728a56089ed0845c9d,通信大厦,113.570783,22.256908
c110584a68f4421f98dd76851bc07eae,九洲城,113.573995,22.259017
273f1dc6398f4538b550f4f742e25c36,海滨公园,113.576812,22.263787
9d5d649c29d44fea99d1d41db6785657,公积金中心,113.574893,22.271218
07288e0340e54554a13e3a077bd66fd9,湾仔沙,113.573862,22.275837
bb53ac35f6384f19b87b28fabb92c0da,百货公司,113.572569,22.280486
c2bf1df7098d4664b3ee2857d21b2790,邮政大厦,113.569485,22.28549
823d1716e08b477480db7f4532bb7aa8,凤凰北,113.567503,22.288642
a9a1d178069940798e0762d177401360,华子石东,113.567497,22.294064
977a7c41c0ac4d8ca3bc3d848b44f4a4,中大五院,113.569892,22.299831
7ae55b46c6384240bb4e2bc7a1d65f71,水拥坑海天公园,113.572142,22.301614
b70a569fd4ab4797b7b0e7adf01f7a1d,契爷岭,113.575442,22.304927
6c5e1003ba2c44beb6509a537eba11d3,美丽湾,113.579138,22.31172
51e5fd51b22142c4a244f989d2d785db,凤凰湾,113.587063,22.316846
277293f189b548769826c431fa12d592,银星花园,113.593599,22.317589
a974d61d2fc14a478f7ee9d9b068a6ce,银坑,113.599187,22.32167
beeab4be74234c3f8639e46d683abb2d,鸡山南,113.590314,22.337503
e1353e9faa324ef69cf7ec06740875a9,鸡山,113.588987,22.341007
7476a4fe1b304c0dacf85d91a23ad4c6,中山大学,113.58807,22.35114
58143abded1f4259bc84389cc4f33721,白埔路口,113.589945,22.35415
7f474880d3a5422b868b3533b65a3617,唐家,113.592257,22.357622
1215878e60f848fcadf7f8eb72fbef15,唐家市场,113.594905,22.36261
3dddf9ad3ee045f29bf00f077a340720,港湾一号,113.595084,22.368424
5ea8d992c84a4d76bac294605f70d1cf,渔村,113.590403,22.370255
c1ed6842752f451b9e1dcd17381f78a9,海怡湾畔,113.586052,22.371925
7e17145ff8be4647bcd04a718c29cc29,珍珠乐园,113.577917,22.37506
ee90a68e08644909a3b7b648373ddb44,南方软件园,113.569485,22.376873
90a0a59b79fe433b83fc07bb1fd2d901,白沙、魅族,113.56284,22.375913
e11dbceda97949a4a0a0e098f06e3084,国际赛车场经济港,113.557835,22.375938
2b506fa0ab90439fbb57b9d694338de4,宝莱特科技,113.553637,22.377368
868a16c89c174c06a5b95fbf1b6237e0,德豪润达,113.548642,22.372847
e84e0f7a2b974b0ea80978d603da7591,北理工,113.546393,22.368247
16572d3f544543c1b0608fa465c84d2c,宁堂,113.544172,22.364208
f7c3f779cf8a4f818ba482b5e63c7ea5,北理工南门,113.541442,22.359245
429a545fd29046b4a0626ede2c5d49b2,京师家园,113.539437,22.355537
c7a7e937960d48789e96fa3b9c2bb868,北师大,113.538157,22.352387
07147d5a82bb4901b670483b19d0fd4c,联合国际学院,113.537228,22.348461
0d002f0d5fff4c829f68ed9fd65d8d07,北师大、,113.538993,22.354037
dcc7f642654f4a39b6e8f509eb278d63,京师家园、,113.540035,22.356242
e1b151ed2cc746f68e749d8ba2ff87b6,北理工南门、,113.541583,22.359062
dda6eb05e3e645e6837ec336df1589f3,宁堂、,113.544187,22.363792
75e49f4418494189bade35a28d528900,城轨唐家湾站,113.547347,22.366542
1bca0abe5c9945f9893daad7c0b90cb6,锦石,113.514235,22.396552
c2052d25477e44aba21028e300764de1,下谭路口,113.51265,22.391983
ac7a9db704a94e548f74b0b4442f89b5,潭井,113.510589,22.393475
39197b9302074bc6a8af94ebdd663ce9,大果园,113.506975,22.392475
bf3d377ff789459e932c32b6ba39545f,阳春埔,113.505428,22.38975
a6a9d2a8b786477487ce235e7c1d6837,公交招呼站,113.506067,22.388211
17c9b056234c4c579bacd880dd746a33,新围,113.506793,22.386125
a5d237e437f9444fa2a9d4fdbc09b4d9,幸村,113.510345,22.385627
bfd975163b9446ed87b1c05043440a7e,罗村,113.513031,22.3855
a062b1c4034e4b61a2750764976202a5,新村口,113.516556,22.386297
098df11031cf4c9aa3360ef3fc549dd4,华冠工业园,113.519115,22.38334
f770d686aaee48f3b8bbac90515c15d7,园区服务中心,113.52063,22.38009
f714f88279524cb297f6a80d458e73bf,景峰广场,113.525575,22.381778
f29110b495ae40c2bc33e2761d2dfc1e,一六八医院,113.528948,22.382473
d73f70a9d8a04bca9bdd9f2448df3d6f,高新区人民医院,113.533265,22.383058
98cdd784814742a3a1816b81172b9c44,金鼎市场,113.5384,22.383311
45073b039c6c48949f0382531539ec93,华发新城总站,113.508933,22.235912
b6c0953d063c400d881d742ec6b91f35,奥特美会所,113.510767,22.232223
56ee2d83a3284c3199b30a46bd20864e,北山、华发商都,113.505588,22.22619
38b4385f1f2f4e36b03cc6cc4de185a7,南屏街口,113.501315,22.224133
504a8468cc464124a6466d1eaf5707d1,南泉路口,113.497602,22.22272
3986dcecc4954de084b003c2ba36332d,南屏中学,113.493527,22.221692
a9259ffdb39841659888f8130e36d85d,公交柏宁,113.486543,22.220788
cba27e123fd445c19dee13a495f9b5e0,南屏水库,113.480923,22.219297
0af93b9a66e24e9aa793081b4be1aa00,河排,113.477265,22.218215
4211d26999784632b08284e370461c27,珠光汽车公司,113.47139,22.216457
156cc0a0c28743ddac64b53d985704b0,广生,113.466437,22.214958
e76ed3de7ead41f1ab81888027b9b002,公交信禾物流,113.453617,22.210945
0d959b24cdbf4ef1bab7f3752550a361,屏西二路,113.453561,22.213458
0f66d11f18f1493ba40868ad622360f8,南围,113.456378,22.210375
8a3e592833164c69a39d61da520e45a0,洪湾,113.458282,22.194562
0096de9f9e8d4d30b852661086ea2934,马腿公交临时站,113.457853,22.192322
f12211bdfbab4ee1be84044365d34562,石角公交临时站,113.455511,22.185961
b1b304bb817d4b81a02571b6800639d3,山边,113.454655,22.18487
b5093f5cacf243dfabdeb12b84843008,二间,113.451407,22.183553
efbfee9acb384300b25024f4e1f2eccd,三间,113.446385,22.182747
eeeac114c7f141428db67be5ab544c17,新益,113.443583,22.182387
8310c4c0aca140aa813c2e65a6581de6,同益,113.438697,22.18537
ce11b8075aca4ec69d25d21b6149e395,拱北,113.548086,22.223856
51ca13d2255c4e8da8b35e9baf55dd7c,第二人民医院,113.542358,22.225258
afa0c55b7f564649ab2db40ad458110d,粤华西,113.5372,22.223561
e98acf735c8841d9b1eef8032f773a96,港昌南,113.535103,22.219922
2a9a6134d79f48e6aa1d51c6f8a6b144,华发国际花园,113.535112,22.216428
5837d0c4c49947d7b320c67f6defd04c,华发世纪城,113.522669,22.213717
2d3c48b4b59a4098afd54e9bc198a2cb,竹仙洞,113.51635,22.213427
7c5dc86066fb45caa931e589d0bfbd04,北山工业区,113.509962,22.217615
36685bf5ef07423ea5f3e684cfb2da83,南屏,113.506003,22.222121
8a370e527c22416896ea5b53b65142ac,南屏大桥,113.501743,22.229403
eb57d02717b34f0b979716dfb8f2e1fe,农民新村,113.49574,22.231835
cc2eb47e1f534a7c9846b9c518f0e2bf,南泰明湾,113.492237,22.230212
a665e59ccd544dc8884271c919dc9dd9,科技新村,113.48897,22.228625
c86d130ce1d24bd1b6499c2e7092d5b8,攀云购物公园,113.484722,22.226882
28d57618973b4982acb137f442af0b53,兴业公司,113.480612,22.225602
76abc5f11d6543ed84c8119fc79d7a58,屏北二路中,113.47463,22.223845
d6b86a8cda9447a781e77b86f2017721,屏北二路西,113.471228,22.222787
8a6852569fee486baf5e89db7ed01d7f,南屏科技园,113.466336,22.221156
d12054ed66fe4625851fcd519cf1e5cb,云顶澜山,113.50522,22.287875
0e0b3410d34a49aea05e2846a2cf3bd0,公安村,113.5135,22.286511
87deb267dbe749c08146debf09ba1e42,诚丰怡园,113.517277,22.28591
e3402683ded44440b34f6e657d26aaeb,特警支队,113.518237,22.281133
81aa8693361e483cbf39b60ea1e30b79,葵竹苑,113.519075,22.276098
0d83f6bbb05a4c80975947353942fac6,旺角百货,113.52038,22.274353
f4d3e021135449e69c7b5a4eb09eaae0,富康花园,113.524775,22.275022
99a7e21650ce4a35ada80780050ec446,红山北,113.529975,22.273787
745ca831053c41ca84c8e0dea075034e,体育中心南,113.534636,22.274505
54ca08e1a2cd4ab494abde542e16fc48,金桦花园,113.537468,22.27744
ea105e6643f94a1ca1a1c4afdcfee795,名街花园,113.544562,22.278865
80305d1b245c45a8b893cd73ed1a3bb9,农信大厦,113.551082,22.280158
7e66a1e948b24263a1c11e37146b95b8,八八八街,113.556433,22.280357
5e8aeb31151a4b37b94f9e46f7935e7d,香洲总站,113.561592,22.282708
165e2113d18647308a2b0a6ccb102c95,紫荆园,113.560763,22.28613
c3beb3f596f547099aef3950c1319a0a,梅华东,113.561439,22.289489
305b1b42ec024efaabc519750ecf2f3e,华子石西,113.563806,22.290853
23f7979ab7804ef6abb314ecdac4693f,凤凰北,113.566498,22.289968
599e939db4134f2a9e82e6dfdaf6941d,邮政大厦,113.569861,22.284594
008ed6992df240f18136f3d2b9b3cfb6,百货公司,113.573468,22.278952
4d6ebf31b57144bebfa3faed6f00ecfb,湾仔沙广场,113.574582,22.27506
57ffc32673bf4d8886078a153e8b962d,香炉湾,113.576588,22.272472
e327d55a48654d63b410f3691dcc77a0,城市阳台,113.57742,22.266745
55a2ad61dc4b4e2281db0bcd2b408983,珠海渔女,113.583137,22.263913
709c9fefab2444f3877271c731819336,海滨泳场,113.585035,22.259395
60a2c0ff97b54f4288d883bc0c0f1eb3,海洲路口,113.587752,22.252152
639e4d5cfa0f458f9817db77a345b7c4,九洲新村,113.587783,22.248537
848dfe15e2c54241b4d27523bf099885,洲仔,113.586975,22.246781
962ee8ffd4224cc3ba52a6721f82635d,九洲港,113.587458,22.243011
bc3dc8f8be3449bf9541af1fd5c7c78f,九洲花园,113.582548,22.244213
4c91cbcdb5544895ab8e25fc29a5016e,情侣南路北,113.579528,22.24143
4207c36b8ce2445489299754f45a35b7,海愉半岛,113.582033,22.238148
b96702b6d9e244b3beadf03cf2cd3caf,九洲驿站,113.584592,22.236067
19bafacb8db84a7c843e1960c630c2ad,宏海湾花园,113.579281,22.236421
899fbd5535d847e6835b27c9497a6da7,情侣南路中,113.576432,22.236985
ec35a1ce3ad0430db5fc0af404e66289,庆华国际酒店,113.56948,22.235003
dac8a50758174ba99a2dcfd4f578fe1f,情侣南路南,113.56179,22.23316
52f08af6f75441e98f3cd998c0595ff1,日华花园,113.557472,22.227722
1b28dbce6e754f4791ce00dc630fa059,拱北口岸总站,113.550614,22.220531
4270ed59749b491f9ed6db05f5c8fd67,南湾总站,113.51805,22.216708
4cb7b6d77c0e416badd784a240033c6a,拱北工商分局,113.530703,22.225817
669b3f93234a40bbb05c63e4f0386c39,夏湾,113.530616,22.223988
fa26a4434f4b444baa7127ee8ac57f2b,权晖花园,113.526522,22.226878
fdcdeb58b63840cfa062b298ed00810c,港二路,113.527083,22.229256
b317e9c245c9457bbc11497fc2aa7c76,昌平路北,113.530203,22.230103
a63964650db842eeb07bd8fd47fd1b09,春泽名园,113.532147,22.227356
7b8d01298d8b45ea80547b70d10db4c0,昌平路中,113.534417,22.225053
132421fd09b24111a7b3f2460e26567e,粤华西,113.537075,22.223397
2bf8de9dc3004aa9b87f2e0c00adb3ca,华平路口,113.539078,22.224486
63179d6404da474f98ad7543a1ff0ff1,第二人民医院、,113.542012,22.225145
011b2afb6f0c4137a0c2e3a3e303b14e,新市花园、,113.546263,22.225638
01cbf4a1bad149709c216af71c0eecf5,拱北,113.547936,22.22455
3dd7a19e5f8c44ea8b69f84f508727bb,拱北口岸,113.546681,22.219494
46e2e999d08044e19703db10cc47bc7c,观澳平台,113.555258,22.223792
f47c6daf4beb4429801f98840f987be5,粤海东,113.553307,22.227557
67cba7adbb3242fd839434fa1f53cfa1,银都,113.550138,22.229348
3776787d5ae8437cb542858ef09cfe9c,新市花园,113.54629,22.225728
51ca13d2255c4e8da8b35e9baf55dd7c,第二人民医院,113.542358,22.225258
9acff0cdd30b476e930b07f9be4da297,炮台山公园,113.540262,22.227365
641fb66d0a7f4aa1b61b53f7b217db77,夏湾市场,113.537058,22.227358
7f841917771d4dfd8c30e9bb2f8ab235,夏湾路中,113.534461,22.226122
7ea3c8ff965a4f66b743db8cdf34629e,拱北工商分局,113.530722,22.226217
10c76417fd724830927251055dcae42e,南湾总站、,113.517658,22.215469
0a23c1f7a7124e7bb44760134cf8e191,人社局服务窗口,113.533222,22.284903
c93be364f095408b849166e142672c55,行政服务中心,113.534193,22.281038
c6a447a9e80e4130aaf5d452adba4711,香山驿站,113.536117,22.282833
e64d27af56fb46a28e9553d28f33e263,香山驿站,113.536606,22.283233
9866ce16a709439eb3ab22ad665d8b38,人社局服务窗口,113.533303,22.285003
ff032dcbbe3f4353a0310c1d9924630f,三灶,113.342875,22.046925
eadc0034c28543bb8072efc93a82a163,映月新村,113.341758,22.050372
21d88edb198a4267b29530b2dc93c867,唐人街,113.341903,22.052631
1287bbcb10374cb5986ae8cb2ac19330,月堂,113.34369,22.05453
65cb8b40915f41db93fdea87ef07e9b0,中南修理厂,113.346833,22.055682
9db2791cdedc40c7b25867b57849e4ec,日东涂料,113.351988,22.057522
4778fe28480f4115bb0ce25f95021a13,鱼弄,113.357072,22.059342
ce864a0b05a64ae08be7de3963332e3a,城建总公司,113.365397,22.062186
77277a0513724f7dbbee29031aa47c3f,斜尾,113.370594,22.06534
95e62656d01d4befb0c8b55c08e221e3,金沙湾豪庭,113.373842,22.068427
1dfdd25f977e455abdc56b38310951bf,金海岸中学,113.376925,22.071423
43b9ca98ec2f42b384be20e0cb8ee97b,金都大厦,113.379825,22.074224
45e5529e259f470f8c487cb1faccfc8f,金海岸市场东,113.38325,22.072402
00727c25839943dea4b8470c09c4e15c,黄绿背,113.387378,22.070772
3e6b4c675ab446ef85e06b092c03510c,遵义医学院,113.39426,22.073298
31bb7cf362924223b0d911285b61c988,新世界花园,113.387853,22.08053
df2efe31ac834a6297da2f8f3566ec7d,青湾,113.379095,22.08778
e1a3e1f999894fe490199e27cbb98886,金湾高尔夫,113.374087,22.103638
70e3a64fd3f546b5838e0b3ab372f20b,二号闸,113.371468,22.113603
bf4a8120a58743618e71cb3d456a68c1,时代山湖海,113.368465,22.125502
c7c80d779c5e4ebeb69bbbf6ffb4e905,保利香槟,113.366358,22.133447
522b9ed2303a41aea81435a927570d0c,西湖城区,113.363272,22.138578
714c3cbaf218411eb05e1382eb1ed89b,湖心路口,113.360703,22.147483
1c85e519ac1341b8bafdd560c95a8f55,鹤洲东,113.377617,22.168656
7a149edb308945e19a44c4173d7a2d9a,灯笼路口,113.3905,22.177194
755a56506dc2474b820956f24acaa988,珠海大桥西,113.396506,22.180083
ca2ce20e0b1d4ee09c9d5c36ba11e8d3,珠海大桥东,113.430232,22.197148
d486f9b7bccb4a18beb06f935e3664e9,均昌、奔图科技,113.437514,22.201561
0072bf792a0349bd93f10a10694ed1ca,广昌,113.442977,22.204558
2677cb327d5d41c3b6f723e3c3dd7317,翠湾,113.448778,22.207558
9b6c576d7584411882f878d52b1e4407,公交信禾物流,113.452852,22.20971
585f05be7bda41ad99d9a9d1ee0aad51,广生,113.468218,22.214523
12f673e6182a47bd8a9025857591f48e,珠光汽车公司,113.471378,22.215463
2f08d5f844b8418698ae095da94fba33,河排,113.4758,22.216793
1af0e0e1bf6d459c99dd6fefebfc9d11,南屏水库,113.482573,22.218822
bbdf673c00cf45869d8be2395d4b28e6,公交柏宁,113.487547,22.220033
e53fca7c48e9400abd2c0146aa17fd7f,南屏中学,113.493372,22.220735
b3dfa9ed0fd6413c88272a00fd08172c,南泉路口,113.497272,22.22166
fc078fcb696f467d82b85f8158869ed9,南屏街口,113.501052,22.223272
5ab0cd292c2d4ba98ad6b1d40b7b64cb,北山、华发商都,113.505603,22.225435
c56c424d5b014d99804f2e61caf1ca0b,华发新城,113.514525,22.229544
e97dbc782621490cb5c529bf5a5c4655,前山,113.522944,22.243664
50c478c9cddf491db7aa932975983e49,世邦广场,113.524303,22.247307
168aff8ba00f4f12869a6542f58aecc2,暨南大学,113.526343,22.253102
4980698f7d444493bb1435014abcf962,暨大北门,113.53082,22.255827
9050f945220a4858b1d43af8ae39da2b,卓雅花园,113.535133,22.255972
61f10b88d0674b59a5265e0d925a253d,武警支队,113.53978,22.256843
87211d17022644288271d91e2945a4af,柠溪,113.546438,22.262802
8a177b2211cb4fe2a7281d007fa0eeab,香宁花园,113.55135,22.267502
e103a53268884930a8c823e734266c33,南香里,113.556232,22.271768
d990386ef4bc457cb2c691512acce341,南坑,113.560942,22.278207
33f6ed9b192943c190b43d3b9710f026,香洲,113.562183,22.282487
bff744f98dfe4e40b1df8bb9f62d17c6,斗门实验中学,113.273645,22.211548
61e38528ebe846c9a020444015be4bbb,锦澳雅苑,113.275532,22.215045
a20a0a98ec2145dc9b25088136bec5c1,龙霞路口,113.27703,22.217127
9eb4bde8159c47a68e87e071a78d7026,长亨,113.279992,22.219622
11c6357c7849485d8e2a1b18ae30f221,井岸三小,113.283317,22.2211
f3203e340e56478abf4dffacc69c0799,新鸿酒店,113.285787,22.221513
8c6f463ebded4baaa9f2a0e144396a72,井岸大厦,113.292017,22.216798
8f2e9e7892004a55a1d1096e39ec5f46,银城酒店,113.293713,22.21164
d371e7787d254387aa127e8419dd0017,尖峰花园,113.294902,22.207547
0c20ed79b396436f9eb7db4022fbe9ad,农业银行,113.295933,22.20411
957884a4be5245a88adbd6f5576fe21d,龙珠花园,113.2966,22.201735
eaba8ba9f79e435f98431f8055cf7cb9,中兴南,113.297608,22.198106
dcaad797bb2a43fa9b1b16aae851ec36,尖峰,113.301933,22.19675
a346e559276e4eada2d01c1e67158adb,尖峰山,113.306678,22.19711
8062532c08f6482f92701e3edf182b9f,斗门行政中心,113.310933,22.192787
6eab302fe55a4925b6e036a288366a50,尖峰山公园,113.310019,22.187152
97f999dfa2c145bb90cb8b03af87c66d,斗门市民公园,113.308515,22.184456
539de942ee5a4d5dbf95144527e72a21,作品壹号,113.304508,22.179155
6add446fdf41473fb78f47745d26d41d,里维埃拉北,113.300704,22.173739
1c7cb2b14d1f4b99ba9c8391d9f45100,东风南、遵医五院,113.294748,22.168646
94a705730e8a4c00abe4227d31050dab,里维埃拉南,113.289824,22.166342
2e9d790f6b6a498e9af6e786da667a0f,新青五路,113.286598,22.165607
6e68b654975848218a4b996717e4960a,新青科技园,113.280137,22.164716
afcf073e81cb4415b546702c14e4796c,新青二路口,113.276028,22.164099
d14c966d23094e119e2ba9ffa301148b,西埔市场,113.269319,22.164056
19feb8421e054785bae382193a767c71,白蕉总站,113.304217,22.229565
02e5f43dd9d542259c17480527c04e44,中纺城,113.306165,22.230285
5303f0cb329340108d3b26a20bb63039,斗门装饰建材,113.313289,22.227128
759545416f43490b9433c9a2462e1039,田家炳中学,113.319231,22.223739
84b2dfb3473d44af9867cbe262e74a88,榕益,113.321067,22.220786
49c26def803945f79038e0b5dc7d23c6,威景制衣厂,113.322243,22.2166
7caebc10f86d4d48b2879e699713acf1,利通制衣,113.323118,22.212365
07341dfd5cc545b5ba31628c58226413,虹桥四路口,113.322783,22.207914
5dd03c3443dd4b2dadd6fb7a655ddf1a,南方IT学院,113.322452,22.205927
f260191286d24b2e9c7410be31d91054,星宇,113.321497,22.201506
a0ea6821dfc446408d25bc047a318d96,白蕉科技园,113.320672,22.197297
e08e31c1c41c4c4e8b91f0123f210e46,丽湖名居,113.320028,22.194458
b2bfab08a09746099bf3b2853f22b773,尖峰桥东,113.318914,22.188928
6eab302fe55a4925b6e036a288366a50,尖峰山公园,113.310019,22.187152
97f999dfa2c145bb90cb8b03af87c66d,斗门市民公园,113.308515,22.184456
539de942ee5a4d5dbf95144527e72a21,作品壹号,113.304508,22.179155
6add446fdf41473fb78f47745d26d41d,里维埃拉北,113.300704,22.173739
1c7cb2b14d1f4b99ba9c8391d9f45100,东风南、遵医五院,113.294748,22.168646
94a705730e8a4c00abe4227d31050dab,里维埃拉南,113.289824,22.166342
2e9d790f6b6a498e9af6e786da667a0f,新青五路,113.286598,22.165607
6e68b654975848218a4b996717e4960a,新青科技园,113.280137,22.164716
7c32afacb4854e039994f0f15fe0a7df,新青二路南,113.276725,22.165044
fc45d52fa5a34168b6a92f7cae1ef0e6,新青二路中,113.275741,22.16931
74d03a65589f417f8287840e0888ec38,新青二路北,113.275375,22.171374
230bf7eb6d4a4b8ab93e792a17e9edfe,伟创力广场,113.2737,22.172985
0316d7464f9d4ddf95b1774f7dc84dd3,新泽园,113.271915,22.176103
00eb711e8d0e41a3bd64071d4bf62616,山水花城,113.269228,22.176127
5e59ccd4e4fd46aa8acc5b36391218b8,超毅电子厂,113.26724,22.172777
6f253ce4f0b84e4cab1ed9e4a0fb858d,金泰,113.2659,22.168968
a97eb0c8efd4407886d3ed820d82fbd1,西埔路中,113.266769,22.166464
f4adf63e48a44ad888587f75fd47131e,西埔市场,113.269306,22.163994
381218e7998441169eafbac57ff61213,西埔市场,113.269331,22.163789
2081e8c56b014e7d9219617e5d7d8f1b,西埔路中,113.266958,22.166403
9fd855a7b74f4f3f89d8305fa1100f37,埔青街西,113.266097,22.168553
017bc1226bcc49398157ef4b9078c554,埔青街中,113.272315,22.169553
8dac803538e94740ab0675bbba41ded9,新青二路中,113.274987,22.169952
74d03a65589f417f8287840e0888ec38,新青二路北,113.275375,22.171374
691d21c252ac42ffb30efe3d2f931407,新伟街西,113.275886,22.173236
b038e7b6af824900a8dc72fd988312de,新伟街东,113.2816,22.174558
8585dbce42034039bde0718c0b8408f4,五福,113.286914,22.176053
eefeac623c184d99af57f651cb506738,福新,113.289419,22.181089
6c6355b94c3f47c68ea5db0b553aed76,东风,113.292283,22.186253
6a3b83b69b45468086bf6095c541727a,尖峰水塘,113.299025,22.193764
04855f63fc8b420c997e177f66555988,中兴南,113.298164,22.197014
cd4d2eb6b611494faf28566137f60605,龙珠花园,113.297482,22.199222
69d8cf8a47ce480397660c9b59070ef4,农业银行,113.296212,22.203563
68de6f7552b648e6b93fd3a4edd1b6f7,尖峰花园,113.295435,22.20605
012b6bc63c6f477abfa454fece0f12fb,银城酒店,113.294,22.210945
0deff6fe33e24eb9a33695bb03b064db,井岸大厦,113.292547,22.21598
172fda797f974ad1800398433fbd9492,北澳,113.286128,22.222515
125856e7c49e400697fb3d018580d6ba,金湾市场,113.291177,22.196028
8ef4d8df80d04a47a990988c4aac8e93,坭湾市场,113.293811,22.198611
c27d17f9421c4f21aa8fdfec625ff97a,井岸镇府,113.293433,22.202689
dbf15bb9bc6442328c5183463ebb6907,井湾路中,113.292911,22.206736
132a6d2d76fd4a1a94c52c3de817f828,斗门供电局,113.292742,22.208328
7a5aca77dd8b4abfbacc4fbef080bed2,斗门交通局,113.2927,22.209333
bdba58ca6c7f46a783fea6655119ac87,井湾路北,113.293428,22.211647
0deff6fe33e24eb9a33695bb03b064db,井岸大厦,113.292547,22.21598
95c57461d0754572b3d25117e581096c,侨立中医院,113.299197,22.224408
a641701f22444ca99a3315e3cc5d90d3,金山市场,113.302138,22.22667
5619055bef25491a8f5e139a312e5dba,白蕉长途站南,113.30455,22.230025
e512f6168e60465bbd04c34cc93f3732,斗门妇幼保健院,113.295431,22.2265
93866ee5cbb64406a1014d31b0daa9d8,连兴二路,113.291483,22.22765
7f1c1934236a4b078f0a906fff5e6ddf,宁海世纪城,113.292883,22.224811
5d420c10f58a4d01b2b7af908a33f2dc,莲溪,113.228547,22.379628
a849ac0897ed4012b9786b12d01b60af,莲溪中学,113.22899,22.377373
81dc778db2f049e0a6762464647f004f,前进,113.164331,22.073231
90d5bb6d9c4444bcb924be36aba22da8,吉湾,113.230277,22.363802
61e957a2a7f34276ab443e7e53f2f516,莲江,113.23146,22.35738
d996850a226f41b79e7f4f87b527673e,沙湾,113.23212,22.349972
2074069b73be4efb86047eefe31249ae,光明村口,113.226655,22.348492
962fb652c14d46249d162d2ef16d1cbf,农游世界,113.220065,22.344332
1af0ad755aea49a9a3a0103c5757cb2c,大沙场,113.216382,22.340813
5045522c1e0a47f1a45d782efb6ae2b1,日通座椅厂,113.20609,22.336175
3ed7fe44455940cd9dd03a31fa5d1a09,横坑口,113.199908,22.334352
f31efc0a926c48fe9276ab5295b7eacf,新埠,113.201203,22.328085
f59fa6f24b274a3c8ad1d20c94e42e04,横山市场,113.201723,22.32515
f68baa5e262b4678840a87f2e3792f4f,横山,113.201723,22.320302
a160a728788c4cb695602cddd9683477,大胜,113.203362,22.316753
028459f86aed49799bde68be1bfbdd01,横山中学,113.205625,22.313828
d6040aa6d1c4453dabc6a535bae0b345,横山红砖场,113.206817,22.312239
b8c674f0a9564f6f93ef77dd1d15ddd6,新洲,113.204711,22.306336
a1aa80dc88b54066a5fa5b90a7ca5191,四九顷,113.203156,22.30205
0df115f5874d4654b0fd32206af3d31b,西窖,113.202378,22.296737
4a01864a26264824bdb32328fbab8017,大环村,113.203528,22.291402
e226e997a5d441ebb71b704b8c9336ee,小赤坎东,113.20711,22.281637
95030b4b38074dcc98128938db0c3235,乌石,113.217018,22.279257
bff71824a95f46ab9a90c1309ccc8890,官冲,113.221556,22.278497
7b0feeab1fb34d99895df81cac78af1e,大赤坎西,113.227317,22.277512
5a4c2195eeff4d14ad575bd39f41aaa5,大赤坎东,113.233647,22.277787
c6ed6ac55a024230ae90a268e92c295c,基石公司,113.256533,22.275558
117ae005840248439862ef0187aa9f40,大黄杨,113.260965,22.26232
ea9629d8f2294b559ce57caee3ee9c38,乡意浓,113.263406,22.257178
99533829ae064a9ea7960de298949277,小黄杨,113.267373,22.249728
a59bf32bfca442f29ea5040d8efc0082,黄杨工业区,113.271328,22.239497
b69be30787fa45d699cb376a5e149624,工业大道北,113.275233,22.23106
f1d7f75c34fb4649979a43d031cac5dd,工业大道中,113.28044,22.227088
5fb37092bcd542bb8be5df7395cfdeb6,北澳市场,113.28277,22.224563
f3203e340e56478abf4dffacc69c0799,新鸿酒店,113.285787,22.221513
96c241d9937b4b26b743bf988d64b1ce,井岸,113.290381,22.217903
6fa6273f1147416e882d4a0f0553400b,北澳,113.286357,22.222775
8c6f463ebded4baaa9f2a0e144396a72,井岸大厦,113.292017,22.216798
8f2e9e7892004a55a1d1096e39ec5f46,银城酒店,113.293713,22.21164
d371e7787d254387aa127e8419dd0017,尖峰花园,113.294902,22.207547
0c20ed79b396436f9eb7db4022fbe9ad,农业银行,113.295933,22.20411
957884a4be5245a88adbd6f5576fe21d,龙珠花园,113.2966,22.201735
eaba8ba9f79e435f98431f8055cf7cb9,中兴南,113.297608,22.198106
dcaad797bb2a43fa9b1b16aae851ec36,尖峰,113.301933,22.19675
a346e559276e4eada2d01c1e67158adb,尖峰山,113.306678,22.19711
8062532c08f6482f92701e3edf182b9f,斗门行政中心,113.310933,22.192787
6eab302fe55a4925b6e036a288366a50,尖峰山公园,113.310019,22.187152
97f999dfa2c145bb90cb8b03af87c66d,斗门市民公园,113.308515,22.184456
539de942ee5a4d5dbf95144527e72a21,作品壹号,113.304508,22.179155
6add446fdf41473fb78f47745d26d41d,里维埃拉北,113.300704,22.173739
1c7cb2b14d1f4b99ba9c8391d9f45100,东风南、遵医五院,113.294748,22.168646
94a705730e8a4c00abe4227d31050dab,里维埃拉南,113.289824,22.166342
2e9d790f6b6a498e9af6e786da667a0f,新青五路,113.286598,22.165607
6e68b654975848218a4b996717e4960a,新青科技园,113.280137,22.164716
afcf073e81cb4415b546702c14e4796c,新青二路口,113.276028,22.164099
eeedd333ffc247cfa62e339419660c01,鸡嘴路口,113.269367,22.163133
b1c434c8b241439ea1af6e376f76bf95,伟创力,113.26675,22.162818
1ace6e6f49794de18eb38104f0b7a93c,草,113.257965,22.161179
bcd1baec0cf44a938f794832804bc1ca,南旺小区,113.24296,22.15993
f824c12ebbe943f8bd51b0f17eca0349,东澳村,113.235602,22.157835
211531200e3546d18fc39183633dea85,山水恒源,113.230698,22.156897
f36ad08a535149a7ad9c3c2c35a9aaaa,乾务牌坊,113.224355,22.155357
e82f289ec36a458facf77c83d4547747,超群电子,113.215558,22.15354
c4a0a3ac60d54150a21e281550949fd3,杭萧钢构,113.209648,22.152972
e252da21472d415f9b9489243339c0a8,乾务消防队,113.195429,22.150639
c5d38672973847eda783895cd13062c1,荔山砖厂,113.188228,22.149574
2077f9e1bc434b0ab53336836842dc8a,荔山东,113.183719,22.148976
1de26d17ad9e4a6397f8e03d6e677dc4,荔山,113.179803,22.148671
6d7a9b57160e4152a0160081d0a6f10e,骏德电业,113.173973,22.147567
e7047b01067a4f7896b882e0d602e2dc,泓利织带,113.169282,22.146882
ae8b72d866414b19a61ff0b3b17fa145,虎山东,113.165922,22.146666
d654222e5e054c858a876891e1f315cb,虎山,113.160038,22.145733
236e7b3a4f7e4a04bc1167f2d69c3434,虎山村口,113.160371,22.145864
f6175b225d194fae885b873878d5ea31,方正,113.157626,22.145484
d66d7e3aaec34badb8360c7d30061455,珠峰大道西,113.148995,22.143936
9cec573617bf46b39cbe7085d42e29a3,富山工业园,113.13839,22.14293
0ba1d639ca7e40f0a97341420dbd3d17,井岸,113.290381,22.217856
dc218aecda494cb4ada12a2eb84558b4,新鸿酒店,113.286122,22.221283
6e2e5f99ea59450f9bae470887eb3aac,北澳市场,113.283202,22.224223
094e02d159ed485fa94dcdc10aaf08a6,工业大道中,113.280783,22.226813
09eb7411106648a7b3d351a1a9198f8e,工业大道北,113.276042,22.230443
1b8c7c21ab2247b6b6d14c9780405364,黄杨大道东,113.2718,22.233173
b400a200e8d5410a93a5f58c7218ccf0,西湾东,113.267663,22.230835
59680bc18e25406b9ca6729b1f560661,西湾小学,113.262808,22.22849
1904fb9bd3ca45bf92b961a3700fc7f8,西湾,113.26017,22.227115
47e8b145905b490692eb3778ad64520d,斗门一中,113.251602,22.224298
ca55885a8d20483db318a9f1b25aa9d6,林场,113.229907,22.216573
d8e399d1abb74297a35e6527d9b02041,石门坑,113.224836,22.216494
fc90b57c80704c77bb0ba225bd814fc8,金台寺路口,113.214456,22.217625
8135667c40554947be1903cea4d50e69,东兴,113.2091,22.217765
3a81214bbc1249b4aefdb995b1e18acd,排山,113.204525,22.217078
0b7bbb7f844c42d490080276523b6ecc,狮子头,113.200493,22.220285
5cddbaa266424aa48c5ef1299f45a40a,金星花园,113.198008,22.224643
19680dc75b7d4551a5e830994619bb56,斗门村,113.196362,22.228317
6784ac96af57493ea276d42f5fb20de8,斗门镇卫生院,113.192125,22.234302
7d605e1d71004ef4861458d0682e7a95,斗门镇,113.191998,22.235953
c34b113e787e421b89aa408367540688,南门,113.19007,22.236015
40355543a3a44ead8edb6ccebc65e98f,濠冲路口,113.188823,22.23151
f8202972b1514629b25fef4aa35d05bf,建宏陶瓷厂,113.180075,22.229058
1ee89b9dfb934f5789df4df616aae9e4,田岩,113.172235,22.229055
f7ecf3eee33b4cd18c3ddeea6ad9e0f3,小濠冲,113.167185,22.228335
5ad20736be084f1bb7e0cfc6666581ee,小濠冲西,113.16434,22.226947
c4c2ba4b7ab245f4bd5e4bde04035140,大濠冲,113.160788,22.222135
745fa56d637c4e94b76b2628d08d5d6b,大濠冲路口,113.159397,22.21603
2171346334734e56a40836c245ffee8e,大洋山,113.163747,22.203138
33fefc3d2c604e7087929676f552a0fd,网山,113.155985,22.195953
fe69f25f52b74b59b148cc2f36ef318e,联业生活区,113.151833,22.193765
8bdba554c2174ab2a59c1850d051a34e,夏村,113.147267,22.19273
5c68d23917bf4566b258a1f508055c89,夏村南,113.145283,22.19116
7fca2b3a90c64b3791b7c40c860a23d5,联业工业区,113.141065,22.187425
debcf5e67ef843b185a311d63c2f0561,新立科技,113.138122,22.181785
cdb6b3492b2b45d7a21a88ae63f67705,沿山仔,113.136513,22.178808
18dfe2e9457d4cf5b1a0e9ca7e7ceb48,马山旧车站,113.13592,22.176438
1461e1f1587c456492857805afac9657,马山市场,113.138923,22.173515
dde34c0a9b4641548cbd779ef6a7f127,马山东,113.141262,22.173005
0e164bfd7ef440ae888c818295c924ba,明智工业园,113.144345,22.172393
f8a515c6eabe4e79a296feb722c818d2,龙山,113.148072,22.17195
1ae1a95f91134400bc6c0479be3ed42b,五山糖厂,113.152815,22.17179
45bf03ee3ab54b86b51d969f115540bb,乾务奶牛场,113.162313,22.17494
f665ed866c50451a8d0c19210cde1d21,五山中学,113.168267,22.172958
51626d197a4b4ce9a98146684968ea87,五山卫生院,113.16994,22.17165
0889a10b732a4e1fb0499ed0c273b4dc,三里,113.17124,22.170517
a620c6f4b9234d77b925a09a79f51751,五山沙龙,113.172165,22.168863
ea4a6a3dec9a47828f36def977e8cc56,沙龙新村,113.1691,22.16615
356ff5099c1e4d7ebbd3d3705258fa22,南山村口,113.16925,22.162523
fdf787466e9e4472924926dd65595f90,五山中心小学,113.1701,22.157282
d32d48e98d7e43829e7f4dea756f9782,荔山村口,113.170825,22.153007
771a0f503f9148ecb5024e071903ada5,骏德电业,113.173967,22.147874
4deafe4f80804591aa239d4b21354097,荔山,113.17729,22.148031
c6c2ed4b946946f4998b8c115f2e2fb5,荔山东,113.183542,22.149201
6d985dca7ca24d5abb5103bd9c9f61e0,荔山砖厂,113.187696,22.149807
fee7ba5cbcad4e9a8933cd4dce5893f4,乾务消防队,113.196827,22.151142
99b2f8beb0ea4342a05df295044e821e,南新路口,113.209912,22.153562
673f0c4ddb85459684a946b4c57f6985,乾务糖厂,113.210198,22.157308
239b9fe0859149e6903e52356ed8afea,乾务敬老院,113.212403,22.158998
f52977598b7d4c78afa8ba3b183877c1,乾务卫生院,113.215312,22.161055
138f658cfbc942ce852769e89872e5e4,乾务饼厂,113.21949,22.163155
faac7bd75daf4718898503c2035b7b7a,乾务街口,113.22216,22.16183
fa063fa135a24304829afd09060e5520,乾东村口,113.22527,22.164803
e1558dc02cb24d9a8de7e5ae9c7da2ec,乾务中心小学,113.227092,22.165277
9e866610a2684586b2cfce83e33c842f,东澳西,113.231892,22.161492
a30f62c4b5984e428601dc3c30f2cae9,东澳村,113.234012,22.159397
700107c217544e2e8a78a37d6f1639a7,南旺小区,113.240943,22.159132
fc5b41908de847c79e7b580b3ac8ef74,公交招呼站,113.258278,22.163675
8c53227bfa2344f3b0a7df2aceff8f19,西埔村口,113.260282,22.164795
23f4143bed884d26b39ee0148546d729,西埔明珠广场,113.264358,22.16805
6453d2314c8c40069f38b5e3697dd742,超毅电子厂,113.267113,22.172437
763cb8a0b275429bb80ab0ad77a0b9fc,山水花城,113.26904,22.175872
bf0aeeb8a4074a2f81d4657a59b7e6be,新青科技园北,113.271873,22.17732
4475f20b4713477ebd53d8e830686a81,新堂市场,113.275723,22.176207
52ccc82f758548779dfafbccacd59b97,新堂,113.27765,22.17739
9e5fe6142845497b9ba13ad7b58e0635,新堂制衣厂,113.27987,22.179147
3e481c6e764d453fb6e8cf184dd83793,新青六路口,113.283481,22.184289
0b1a34f5420c4928ad92ed8dbea6634c,东风北,113.290247,22.189412
5e7d0b14f05c422d981c837f623c4849,金湾市场,113.290828,22.195717
9790b53ebb564b1cb1fb9cb0a937c1fe,坭湾市场,113.293628,22.198478
c27d17f9421c4f21aa8fdfec625ff97a,井岸镇府,113.293433,22.202689
dbf15bb9bc6442328c5183463ebb6907,井湾路中,113.292911,22.206736
132a6d2d76fd4a1a94c52c3de817f828,斗门供电局,113.292742,22.208328
7a5aca77dd8b4abfbacc4fbef080bed2,斗门交通局,113.2927,22.209333
f8ab7a91e0694655a7e026f50f946ae6,井湾路北,113.293211,22.211553
0deff6fe33e24eb9a33695bb03b064db,井岸大厦,113.292547,22.21598
96c241d9937b4b26b743bf988d64b1ce,井岸,113.290381,22.217903
03096ae02bbf4c17a70159a63b2b9bfe,平岗,113.301875,22.340642
683866fc08cc48a5b24c498afd6b4569,平螺,113.307757,22.320885
67a14a5a080447659c9c5418a5ea7014,螺洲工业园,113.305775,22.31398
997605683b384d5fb59e29870d5587a5,办冲一队,113.299772,22.311547
77afd134d4f6404c865f3f6e962894c3,铁山,113.294705,22.309708
6ed0ed830686460bb27efbb182ec0733,办冲,113.291048,22.308872
172429d3f1824e1ea3ab01725dc97ed4,文武学校,113.285177,22.30762
40a47073e563428cbfbf621bfa8b2703,六乡旧镇府,113.279763,22.306237
0edcd772caa6492b95bc4850981be5c7,月坑市场,113.277293,22.304867
aa2de16a0605448286b85a095ed0a7b9,石门,113.278565,22.292017
dc9fbcb742bc4466886f54b2023db657,沙栏,113.270377,22.286508
a2ff79a501c142e49f59a44ff244edfc,沙栏市场,113.268488,22.284738
eac2c12a264d47d3b5485311a66b90cd,顺意花场,113.266735,22.270868
e7f3d4d637e4413488da69a6b5bf6956,大托北,113.268957,22.26518
d114ad6130bb4bc09ace6b204988a412,大托村口,113.270737,22.260055
4e05cf4fc3ab4f7fbc8459cb2c1cd170,大托南,113.272033,22.256663
2fc87864b91a41cf95216eeb85aaea31,鲤鱼沙,113.278272,22.250069
719502e480834a25ad699f7fce187359,白石西,113.280063,22.24824
07ccf82c4d4247d2aed56f40829c89e3,白石村,113.283058,22.24496
1f571b49b3054ca2b25cabdd551906c2,白石东,113.288688,22.239367
8e88f07d658a4c4eaa4b3286d92d4802,白石路口,113.2928,22.239067
5619055bef25491a8f5e139a312e5dba,白蕉长途站南,113.30455,22.230025
6065d334f8e147dbb48b9056a12b250e,金山市场,113.301437,22.226258
6e99d0dcaa174be2aed9c9a77edf0833,侨立中医院,113.29975,22.225055
e512f6168e60465bbd04c34cc93f3732,斗门妇幼保健院,113.295431,22.2265
f62ad1a89dd549c48a36f4c504920565,连兴二路,113.292092,22.228064
7f1c1934236a4b078f0a906fff5e6ddf,宁海世纪城,113.292883,22.224811
9225dd154ebe4dd19f7a92d6051edcdf,黄金,113.282042,22.137825
92800308c64a48b1ad5eea63ff067f80,下冲,113.275473,22.146143
4421389f9ec6446497f8bbf6fd6e3542,黄金村口,113.264437,22.16042
1ace6e6f49794de18eb38104f0b7a93c,草,113.257965,22.161179
bcd1baec0cf44a938f794832804bc1ca,南旺小区,113.24296,22.15993
f824c12ebbe943f8bd51b0f17eca0349,东澳村,113.235602,22.157835
211531200e3546d18fc39183633dea85,山水恒源,113.230698,22.156897
3237929cef854c28a02e6674c4c75813,乾南南路,113.225319,22.153978
d31bc9c41ecd4e89a5e7e352c990d9f8,一字桥头,113.227013,22.14945
34288f8da30e4daea24089746f2bc61c,乾南工业区,113.223902,22.142375
1c12f175c7064d25a5166bc551242636,湾口,113.222265,22.139823
1e42a69d1c07497685ac30e4e0ca274c,竹场,113.21769,22.129835
02c7061886294b41972d8a1155fa6e0a,码头冲,113.211762,22.119348
b847e4a32f8841fcb2287db285c60bf0,乾西农场,113.215675,22.106022
8bd9f2d7792b4b5e9530c45706ecda85,三沟,113.231168,22.096592
0bd9dc50761945f8a1c314887c73b591,广茂路口,113.237267,22.093693
3ab8bae82b454af5a0993835dc3f1520,新沟,113.244617,22.092489
43113ffa580e46729c7de6a2312e7b1b,凯德斯工业园,113.138483,22.202697
2491f2775db24fa9bbec140c1400d9ff,西部沿海入口,113.143237,22.213272
7ba2340c36f048fb84288775f4197d2e,大濠冲村口,113.153148,22.215118
1220de380beb4cf3ae6267e7cef1c188,意多家私,113.15457,22.215128
6d2d7fbc32dd4de7b28167f005a1cc6d,大濠冲路口,113.159433,22.215155
bb252d2b971b40369cf513360929d903,金嘉翼,113.164025,22.215232
b6df87e6fbd3420d8bfc1a21d75f5941,龙濠路南,113.176848,22.216502
736f09bea48f4e22b29359d0d409649a,龙山二路中,113.17723,22.220807
f8c7aa790c79471287e9da2e38435e16,怡馨园,113.18011,22.220835
a3541eb301da407d9b7f900e5a6c0da7,巨海科技,113.184088,22.220843
455f99b0c8874d2380d1228b96667daf,艺匠家居,113.189022,22.220365
7903efccb36c47ddb025218a6e1b1fcf,龙山工业区,113.188353,22.216135
d4dbf3565cec46239c8a82100b334cd7,汉坑村口,113.192978,22.215342
c0db95903598456f8ae460dc5fc9e491,八甲,113.196998,22.215825
c8c8884c6ba240aaa51d1415dcc94bae,田边,113.201298,22.216403
a63128b6681347ebb7981f0dfde7fe0b,排山,113.204397,22.216892
0e8ec2a22e1f40509193151772ae4e2e,东兴,113.208405,22.217518
b1b458588d8b4e52afa8b98340c0884d,金台寺路口,113.213575,22.217506
6ee228e181664e25a25a4e99af4624a6,石门坑,113.225587,22.21627
7b988da7d4a34fe5bfa022ff91b203b9,林场,113.229272,22.216372
0b00f30077e147a58a78fdc73cebea86,斗门一中,113.252213,22.224297
33a2c44fd3dd43ab808b46c0f29a7f37,西湾,113.260287,22.226957
860c3ad5494b4867bec0968fbf805201,西湾小学,113.263182,22.228383
c47fa6391c0c4e92934f6ccee8d49c21,西湾东,113.26782,22.230758
90c2c1c2f1f843e3a89baa9c2c14332b,黄杨大道东,113.271872,22.232887
b69be30787fa45d699cb376a5e149624,工业大道北,113.275233,22.23106
f1d7f75c34fb4649979a43d031cac5dd,工业大道中,113.28044,22.227088
5fb37092bcd542bb8be5df7395cfdeb6,北澳市场,113.28277,22.224563
f3203e340e56478abf4dffacc69c0799,新鸿酒店,113.285787,22.221513
96c241d9937b4b26b743bf988d64b1ce,井岸,113.290381,22.217903
bacfbb0e8a1e4fcd8cc932dc7c0dc77b,平沙,113.160931,22.100356
816865274d984d8a9624e42bcbc1d326,平沙实验小学,113.164282,22.099515
b4cd8aa5834645bab32545e683f38865,珠海一中平沙校区,113.169162,22.100615
672d8a2fadd249fe8fc9e5c5e65452ba,华丰,113.173018,22.101613
c2e258e318974f05a4d82b7c59688db3,平沙医院,113.177617,22.103472
7525396cea5e4b8a8f885af928d0c801,平沙邮局,113.182508,22.105593
8dd3647b88b54067bccb2e4c7e608ba6,平沙机械厂,113.184478,22.106533
6ab35a3bcbac48f89e7ac1d22fc2adc2,平沙工会,113.187188,22.108752
c6c45ba23f7b4a66984aaca600b4e4ce,平沙法庭,113.189283,22.111531
75110c7045504a3e99c74146d370735f,平沙水厂,113.193494,22.112875
f4ae428fd84648e4a711d63ede135208,星洋公司,113.196565,22.117579
cc441d1f084c4d4fb49ea1226ee3abbc,南新五队,113.200316,22.136874
84c2a99a59f34927a9182798b99e0bf9,南新四队,113.202208,22.140408
c4afbdb710e24268a514661be061653a,南新,113.203463,22.142437
feceea2eb69644fe9b706d09ae787975,南新二队,113.20602,22.146512
601749a3b4cc47eca79ad40fbcb8542d,杭萧钢构,113.210142,22.151875
673f0c4ddb85459684a946b4c57f6985,乾务糖厂,113.210198,22.157308
239b9fe0859149e6903e52356ed8afea,乾务敬老院,113.212403,22.158998
f52977598b7d4c78afa8ba3b183877c1,乾务卫生院,113.215312,22.161055
138f658cfbc942ce852769e89872e5e4,乾务饼厂,113.21949,22.163155
faac7bd75daf4718898503c2035b7b7a,乾务街口,113.22216,22.16183
fa063fa135a24304829afd09060e5520,乾东村口,113.22527,22.164803
e1558dc02cb24d9a8de7e5ae9c7da2ec,乾务中心小学,113.227092,22.165277
9e866610a2684586b2cfce83e33c842f,东澳西,113.231892,22.161492
aa1dcd25d10f48ba93b9a0bf27827c87,东澳村,113.234563,22.158687
25a80ae5d695433ebf5d77526d7168a1,南旺小区,113.240785,22.16056
fc5b41908de847c79e7b580b3ac8ef74,公交招呼站,113.258278,22.163675
8c53227bfa2344f3b0a7df2aceff8f19,西埔村口,113.260282,22.164795
23f4143bed884d26b39ee0148546d729,西埔明珠广场,113.264358,22.16805
6453d2314c8c40069f38b5e3697dd742,超毅电子厂,113.267113,22.172437
763cb8a0b275429bb80ab0ad77a0b9fc,山水花城,113.26904,22.175872
bf0aeeb8a4074a2f81d4657a59b7e6be,新青科技园北,113.271873,22.17732
4475f20b4713477ebd53d8e830686a81,新堂市场,113.275723,22.176207
52ccc82f758548779dfafbccacd59b97,新堂,113.27765,22.17739
9e5fe6142845497b9ba13ad7b58e0635,新堂制衣厂,113.27987,22.179147
3e481c6e764d453fb6e8cf184dd83793,新青六路口,113.283481,22.184289
0b1a34f5420c4928ad92ed8dbea6634c,东风北,113.290247,22.189412
5e7d0b14f05c422d981c837f623c4849,金湾市场,113.290828,22.195717
9790b53ebb564b1cb1fb9cb0a937c1fe,坭湾市场,113.293628,22.198478
c27d17f9421c4f21aa8fdfec625ff97a,井岸镇府,113.293433,22.202689
dbf15bb9bc6442328c5183463ebb6907,井湾路中,113.292911,22.206736
132a6d2d76fd4a1a94c52c3de817f828,斗门供电局,113.292742,22.208328
7a5aca77dd8b4abfbacc4fbef080bed2,斗门交通局,113.2927,22.209333
54f39e596e1c46e3869a866d95b5c7eb,井湾路北,113.293153,22.211042
0deff6fe33e24eb9a33695bb03b064db,井岸大厦,113.292547,22.21598
172fda797f974ad1800398433fbd9492,北澳,113.286128,22.222515
79909055a81e4eac9996d95bce1c98be,丽珠西门、派特尔,113.270203,22.101506
a2162db3fc2b40ad9e5781ecd8d38173,精特机电,113.272958,22.103939
4d233157b1984b73beea84ca2ea82bfc,小林市场,113.280972,22.106136
f71f4367ae454797b1adcbcc92164872,小林,113.285362,22.107413
b8f663d63469429fb7355974aed9b7dd,五七桥,113.289527,22.10931
b230232651b149268dba86f3d73fe4b0,广发,113.29039,22.111667
5a570685c0ef4d24a345f58a297191a3,沙脊,113.296468,22.118297
0b803b1450f44a6e915362db51dd3d1f,三板,113.307907,22.133423
9ae024a625694832ab491b20c7aa728b,红旗糖厂,113.320665,22.12907
ed02ffb8e4384a4782ebc62867fd52bf,三板小学,113.324277,22.130132
5665c5aa5bd94e68b1806899bd50aeee,三板市场,113.326582,22.13476
cb301ec9b2ca4e3994bdf67b76496d71,永结花园,113.330935,22.13705
f7823343d05a402c9f62201fb8ca05ca,藤山二路,113.333519,22.138347
1991414370bb492fa348936f440cd754,百福汇超市,113.336947,22.140144
4b76e36b6df84216976cc332fcee7e5f,清沁园,113.340519,22.143206
06cf28e4475f4291b8a6a211ab7f2fde,红旗中学,113.342992,22.144269
22afb4425b124661a25276f0ac1a0478,红旗医院,113.346967,22.146061
0984f9aef97b48ae92e06008acd0a9b8,富红苑,113.351778,22.148819
0576f8426b5545d6b279ca89de6c684b,白藤二路口,113.35098,22.151638
5955359118794fa885492ba3d220c630,西江月花园,113.349338,22.153393
7cba3381fce54e7785d1d4f3f17d0b8b,万威美地、五洲家园,113.347473,22.155375
5d2251e61b55446694be6068c0e2b167,德昌盛景,113.341189,22.162081
82e31097858b4b73bb84ce87498bfd8f,时代香海彼岸,113.337861,22.165714
c1bb3e1890e34910bb9e36e112939b07,东方威尼斯,113.333343,22.170883
89dfcd24e34e48b3aeb7efa44e2e9cd0,江南岸,113.329255,22.175703
ad51fc830375460581fa243740fef950,白藤湖,113.323278,22.182773
99c096a6004c4f86856b864563f044fb,鳄鱼岛,113.319913,22.186755
c3b35fe609f140adad7b75023aeeb860,斗门行政中心,113.311357,22.192398
24a926a1089e465db9062327eebf6899,尖峰山,113.307957,22.19621
f4daa161bf6b4a7096ad5f56ecb5b67b,尖峰,113.30145,22.196775
04855f63fc8b420c997e177f66555988,中兴南,113.298164,22.197014
cd4d2eb6b611494faf28566137f60605,龙珠花园,113.297482,22.199222
69d8cf8a47ce480397660c9b59070ef4,农业银行,113.296212,22.203563
68de6f7552b648e6b93fd3a4edd1b6f7,尖峰花园,113.295435,22.20605
012b6bc63c6f477abfa454fece0f12fb,银城酒店,113.294,22.210945
0deff6fe33e24eb9a33695bb03b064db,井岸大厦,113.292547,22.21598
172fda797f974ad1800398433fbd9492,北澳,113.286128,22.222515
5915844b08054821a320b02805d7994f,御温泉,113.191392,22.248936
880fa50233e04a18b8f87b066a9f3351,斗门财所,113.191938,22.241125
c34b113e787e421b89aa408367540688,南门,113.19007,22.236015
0d296957b2f34698880f0ca4e48c2e76,竹坑,113.18941,22.230785
4ce22a9fb8f049d4a0edd23458e1c2fe,斗门镇交警,113.189623,22.225133
455f99b0c8874d2380d1228b96667daf,艺匠家居,113.189022,22.220365
7903efccb36c47ddb025218a6e1b1fcf,龙山工业区,113.188353,22.216135
d4dbf3565cec46239c8a82100b334cd7,汉坑村口,113.192978,22.215342
c0db95903598456f8ae460dc5fc9e491,八甲,113.196998,22.215825
c8c8884c6ba240aaa51d1415dcc94bae,田边,113.201298,22.216403
a63128b6681347ebb7981f0dfde7fe0b,排山,113.204397,22.216892
0e8ec2a22e1f40509193151772ae4e2e,东兴,113.208405,22.217518
b1b458588d8b4e52afa8b98340c0884d,金台寺路口,113.213575,22.217506
6ee228e181664e25a25a4e99af4624a6,石门坑,113.225587,22.21627
7b988da7d4a34fe5bfa022ff91b203b9,林场,113.229272,22.216372
0b00f30077e147a58a78fdc73cebea86,斗门一中,113.252213,22.224297
33a2c44fd3dd43ab808b46c0f29a7f37,西湾,113.260287,22.226957
860c3ad5494b4867bec0968fbf805201,西湾小学,113.263182,22.228383
c47fa6391c0c4e92934f6ccee8d49c21,西湾东,113.26782,22.230758
90c2c1c2f1f843e3a89baa9c2c14332b,黄杨大道东,113.271872,22.232887
b69be30787fa45d699cb376a5e149624,工业大道北,113.275233,22.23106
f1d7f75c34fb4649979a43d031cac5dd,工业大道中,113.28044,22.227088
5fb37092bcd542bb8be5df7395cfdeb6,北澳市场,113.28277,22.224563
f3203e340e56478abf4dffacc69c0799,新鸿酒店,113.285787,22.221513
8c6f463ebded4baaa9f2a0e144396a72,井岸大厦,113.292017,22.216798
8f2e9e7892004a55a1d1096e39ec5f46,银城酒店,113.293713,22.21164
d371e7787d254387aa127e8419dd0017,尖峰花园,113.294902,22.207547
0c20ed79b396436f9eb7db4022fbe9ad,农业银行,113.295933,22.20411
957884a4be5245a88adbd6f5576fe21d,龙珠花园,113.2966,22.201735
eaba8ba9f79e435f98431f8055cf7cb9,中兴南,113.297608,22.198106
dcaad797bb2a43fa9b1b16aae851ec36,尖峰,113.301933,22.19675
a346e559276e4eada2d01c1e67158adb,尖峰山,113.306678,22.19711
8062532c08f6482f92701e3edf182b9f,斗门行政中心,113.310933,22.192787
eaea28a2af2e4b05afccf3ec1f2e487e,鳄鱼岛,113.320075,22.186148
eec0929c4fac4f4db4bdb3b5fb94ca6f,白藤湖,113.323655,22.181902
296164683e50459ba140ac47918fd969,江南岸,113.32908,22.175507
0875a95214454e1589e4c99e1c44bb82,东方威尼斯,113.333558,22.1702
d8c415308fea48b59ced04a96fc09e70,时代香海彼岸,113.338036,22.165072
e3f95e4858af41e5873169cb896b745e,德昌盛景,113.341742,22.161092
4fd7389577a340da81a9b9f4514327af,万威美地、五洲家园,113.34693,22.155578
8b127feb2f8a41f0a9d99cf8c12480dc,西江月花园,113.34911,22.153247
897ef7194c05484a945f1c224280dfab,白藤二路口,113.351452,22.15075
2c654f684c5449188e4e180f1aa76884,白藤头,113.353169,22.148906
bcbf3e6095aa47d5aac4cc608b02d096,湖心路口总站,113.358089,22.146969
abf20bc13f6f4549bb17603cb836366b,湖心路口总站,113.358236,22.147083
232bb3b272114cd7b3c829f51c5f9536,白藤头,113.355108,22.147664
0576f8426b5545d6b279ca89de6c684b,白藤二路口,113.35098,22.151638
5955359118794fa885492ba3d220c630,西江月花园,113.349338,22.153393
7cba3381fce54e7785d1d4f3f17d0b8b,万威美地、五洲家园,113.347473,22.155375
5d2251e61b55446694be6068c0e2b167,德昌盛景,113.341189,22.162081
82e31097858b4b73bb84ce87498bfd8f,时代香海彼岸,113.337861,22.165714
f64f4eb239714679bb1435fe9cbbfd14,东方威尼斯,113.333264,22.171086
2f615851c6a3418fa7e15443052e50e9,江南岸,113.329197,22.175864
987d23ca755d465dbf729feb1c547ecc,白藤湖,113.323211,22.182942
a0ede9e5a44f4a248f374d52ecb7682b,鳄鱼岛,113.31975,22.186994
2bf743d9a74d417ea7f208331057d480,尖峰桥东,113.319186,22.188811
e3281b48c6044d72b7c62aaca3cff3fc,丽湖名居,113.320628,22.1956
495c7bd3057e427481f98a8917b5cbd3,白蕉科技园,113.3213,22.198872
66a2741d54034ede81c8e13f4927b27f,星宇,113.322061,22.202575
e7f89607edf64f1dbe28e1fb9938b964,南方IT学院,113.322803,22.206268
0b7a031d22d049e3802b5d1a3663e8c2,虹桥四路口,113.323194,22.208683
c5da092ec89642c5b3ac29a76d8aa3ab,利通制衣,113.323397,22.211967
14e42e3155ae49829a40f08572ca3480,威景制衣厂,113.322194,22.218108
13701b5fea6c456d8c0af9c7ba32f677,榕益,113.320981,22.221906
f2325477e0e545e7a39ae891d159180f,田家炳中学,113.319603,22.223861
3e6bf39d1370456f9b0d29722fa622f6,斗门装饰建材,113.312964,22.227633
4c40397a0c2443b88ba8575661569c4b,中纺城,113.30682,22.23028
cbebd6cb7c764521a0402291c8d05090,白蕉长途站,113.3016,22.232447
cb87fe91ca7745fa84e91d4da0c4f17d,白石路口,113.293878,22.239433
06c055e6b13f4beba2cd32fa76c55fbf,东围北,113.301911,22.245822
cd7fb5d32798448aa6df2b11a5195a4a,茂生围,113.306808,22.247417
a0a87f8dd73d4f5aa1807309d00b5009,新二桥头,113.324522,22.25449
9505f9b17e44464e92dfd7a222ca32f5,景裕豪苑,113.327281,22.2557
a90ed3c93ff54e3d8f37c9f17b974319,白蕉镇政府,113.331208,22.257342
183f0a4ff0294e6cbbbcf91310bb33ad,白蕉开发区,113.334662,22.2561
00395fd5703343daa6a68f2753003865,城轨珠海站,113.545636,22.218814
3dd7a19e5f8c44ea8b69f84f508727bb,拱北口岸,113.546681,22.219494
d4905085c0ad4e9ab0124f5208413d5a,拱北,113.548206,22.224625
421f5f2d56174a4c96e60274bc7c61c6,凉粉桥,113.5457,22.229736
b2818fe2d54f470dbf70bb83e4bb2442,合罗山,113.538497,22.232272
4574a5dd01b640a29d52ecc12c1305bf,供水总公司,113.535073,22.233497
8e7dc3b5d90040b5858f19d0a5b8e1fd,白石南、银石雅园南,113.530995,22.234952
a4e46bf1f0f548b0a8a4592b471b633f,华发新城,113.514027,22.229828
56ee2d83a3284c3199b30a46bd20864e,北山、华发商都,113.505588,22.22619
38b4385f1f2f4e36b03cc6cc4de185a7,南屏街口,113.501315,22.224133
504a8468cc464124a6466d1eaf5707d1,南泉路口,113.497602,22.22272
3986dcecc4954de084b003c2ba36332d,南屏中学,113.493527,22.221692
a9259ffdb39841659888f8130e36d85d,公交柏宁,113.486543,22.220788
cf5768744bb24bbea8ebac0d5053c311,南屏水库,113.480923,22.219297
0af93b9a66e24e9aa793081b4be1aa00,河排,113.477265,22.218215
4211d26999784632b08284e370461c27,珠光汽车公司,113.47139,22.216457
156cc0a0c28743ddac64b53d985704b0,广生,113.466437,22.214958
e76ed3de7ead41f1ab81888027b9b002,公交信禾物流,113.453617,22.210945
2677cb327d5d41c3b6f723e3c3dd7317,翠湾,113.448778,22.207558
39df9386812e4334aa8e02041061fa35,广昌,113.442987,22.20555
d486f9b7bccb4a18beb06f935e3664e9,均昌、奔图科技,113.437514,22.201561
ca2ce20e0b1d4ee09c9d5c36ba11e8d3,珠海大桥东,113.430232,22.197148
36e2a1967fba4e058f257195b3daf4f2,灯笼路口,113.389389,22.177153
66e9fb4075214a2bbcdd6d9c49138c2f,湖心路口,113.359169,22.147164
232bb3b272114cd7b3c829f51c5f9536,白藤头,113.355108,22.147664
0576f8426b5545d6b279ca89de6c684b,白藤二路口,113.35098,22.151638
5955359118794fa885492ba3d220c630,西江月花园,113.349338,22.153393
7cba3381fce54e7785d1d4f3f17d0b8b,万威美地、五洲家园,113.347473,22.155375
5d2251e61b55446694be6068c0e2b167,德昌盛景,113.341189,22.162081
82e31097858b4b73bb84ce87498bfd8f,时代香海彼岸,113.337861,22.165714
c1bb3e1890e34910bb9e36e112939b07,东方威尼斯,113.333343,22.170883
89dfcd24e34e48b3aeb7efa44e2e9cd0,江南岸,113.329255,22.175703
ad51fc830375460581fa243740fef950,白藤湖,113.323278,22.182773
99c096a6004c4f86856b864563f044fb,鳄鱼岛,113.319913,22.186755
c3b35fe609f140adad7b75023aeeb860,斗门行政中心,113.311357,22.192398
24a926a1089e465db9062327eebf6899,尖峰山,113.307957,22.19621
f4daa161bf6b4a7096ad5f56ecb5b67b,尖峰,113.30145,22.196775
04855f63fc8b420c997e177f66555988,中兴南,113.298164,22.197014
cd4d2eb6b611494faf28566137f60605,龙珠花园,113.297482,22.199222
69d8cf8a47ce480397660c9b59070ef4,农业银行,113.296212,22.203563
68de6f7552b648e6b93fd3a4edd1b6f7,尖峰花园,113.295435,22.20605
012b6bc63c6f477abfa454fece0f12fb,银城酒店,113.294,22.210945
0deff6fe33e24eb9a33695bb03b064db,井岸大厦,113.292547,22.21598
96c241d9937b4b26b743bf988d64b1ce,井岸,113.290381,22.217903
109e18ad0fec42fcafac75f41160f8b2,香洲,113.562073,22.282845
37e0f37540d342cc8c37746c6fcd207a,为农市场,113.562845,22.288423
599e939db4134f2a9e82e6dfdaf6941d,邮政大厦,113.569861,22.284594
008ed6992df240f18136f3d2b9b3cfb6,百货公司,113.573468,22.278952
3a86e2dd1f9d40a28a2b1530a83aff1d,湾仔沙,113.57337,22.275273
75b09c530dba42118c92172a9f7c2efd,公积金中心,113.573682,22.271912
bdc5b951ae9c4d3b893222e232a6c617,海滨公园,113.576517,22.265078
f6adc446d4b540618d2ec16586a0342c,九洲城,113.574193,22.259512
5e0caae765384e649e808478ebae3a16,吉大,113.571232,22.254808
753c7966bb28400b90c2679c1739b0ea,中电大厦,113.565122,22.247883
f3899037c2144dc89c77e968159f8f96,竹苑,113.552287,22.243057
4e5f331767c44167bed2df1643adbded,兰埔、富华里,113.536298,22.239408
f9150d9bb19848d9aeaa748973a4f013,白石、银石雅园,113.529921,22.238577
a4e46bf1f0f548b0a8a4592b471b633f,华发新城,113.514027,22.229828
56ee2d83a3284c3199b30a46bd20864e,北山、华发商都,113.505588,22.22619
38b4385f1f2f4e36b03cc6cc4de185a7,南屏街口,113.501315,22.224133
504a8468cc464124a6466d1eaf5707d1,南泉路口,113.497602,22.22272
3986dcecc4954de084b003c2ba36332d,南屏中学,113.493527,22.221692
a9259ffdb39841659888f8130e36d85d,公交柏宁,113.486543,22.220788
cba27e123fd445c19dee13a495f9b5e0,南屏水库,113.480923,22.219297
0af93b9a66e24e9aa793081b4be1aa00,河排,113.477265,22.218215
4211d26999784632b08284e370461c27,珠光汽车公司,113.47139,22.216457
156cc0a0c28743ddac64b53d985704b0,广生,113.466437,22.214958
e76ed3de7ead41f1ab81888027b9b002,公交信禾物流,113.453617,22.210945
2677cb327d5d41c3b6f723e3c3dd7317,翠湾,113.448778,22.207558
39df9386812e4334aa8e02041061fa35,广昌,113.442987,22.20555
d486f9b7bccb4a18beb06f935e3664e9,均昌、奔图科技,113.437514,22.201561
ca2ce20e0b1d4ee09c9d5c36ba11e8d3,珠海大桥东,113.430232,22.197148
36e2a1967fba4e058f257195b3daf4f2,灯笼路口,113.389389,22.177153
c7dd15ebadfb4de297174a320fc6e164,鹤洲东,113.376797,22.168472
66e9fb4075214a2bbcdd6d9c49138c2f,湖心路口,113.359169,22.147164
7b365af44ca9401dbb55429ac5c2534a,艺术学院,113.351056,22.137658
7b8e3c592fce43ab91e5698e2506e9a7,省科干学院,113.346067,22.133783
f42910c2410845709c5d71805a3f3d01,南翔路口,113.341511,22.130231
55586f688da34c5bb1a0f6af87d6d2ae,金城路口,113.336278,22.12625
d80dbfc60ded4c2db1271949acf0a769,心和制衣厂,113.331489,22.122486
fbc5a0864c6a4dde9ba2a7312d7c52c1,南排,113.325564,22.117903
0befde4f21424128a1c868852480395e,南顺路口,113.318911,22.112753
c16801af813c483a88d57b741717a729,联港工业区,113.314733,22.109517
be472588b6b24f1c84341cf84e0bbb68,红灯,113.306744,22.104744
ec866c9c694c46049bb5c277339b0a2b,惠威科技、小林东成路口,113.3014,22.102261
8731604315ef4aeca30107878b31f2a7,规划二路口,113.295211,22.099392
7b734744f15e4499b1102a977d9e3a67,氟特科技,113.281167,22.092919
4facc3be7f874b3797e36cbadae56374,大环,113.275433,22.090267
74c75f4da9f44341b37b708652325179,鸡啼桥东,113.269356,22.087458
0908b71c364f4bc29fd9b9350541a47d,杰腾造船,113.255397,22.080906
4640b8ec3eb9435c80d94bfc436b8f6e,太阳鸟游艇,113.250731,22.078097
72680e7db23a4f9eafc13212d2b692b9,江龙船舶,113.246292,22.0745
2161f6ac9fd1405b82581d22d6d24efe,连湾,113.240644,22.069503
9f69c2e90cee41b09cdedfbb3cbfc439,平沙路口（普乐美）,113.236078,22.065533
d91bb204f4e6486991fb6470daf818ba,平沙路口西,113.227481,22.058786
0a26033c010d43148d4ab185f4353783,中阳革业,113.223656,22.056378
f2d8b76316ea49a4b4f55077717f5a77,得米公司,113.218906,22.053003
52a27f01cf124079b4af4c93b7acf30b,卫东五队,113.215172,22.049444
afaf287b4f1b47b4972831c91c47de2f,北水路口,113.212383,22.046317
4c05cac9c43a4183810875aa5b694147,北水小学,113.214925,22.041665
4885f9922cb74cf6ac4bd80516e5cb62,北水,113.220175,22.038932
853542a0320d47299c91ea7b3042442f,北水旧村,113.229015,22.04116
aa2cc553f951493a9503727c7a808431,南水车站,113.232489,22.030928
d5e7062287d5456ebb065e494decd639,南水市场,113.230539,22.030078
8c7480a3580c4306b921779a92a095f9,祥环新村,113.225358,22.027217
f81de8eb17d747ba8b6fa4bf1d8108b5,恒利工业园,113.22143,22.024832
a0dd2a89c5af40ed8c3ef9b2fdb68c0f,金龙新村,113.212878,22.019332
560a4c48d9784ed99d737bafbf54689f,上金龙,113.207168,22.01559
7ed930c846fc43f4846a53ccb616a451,南水消防队,113.20093,22.014533
3fe76df759174af684cb2b1ac9d2aa6e,化工专区,113.193594,22.013231
b2eac8fd9f4e4a7f89678e28b57e307d,下金龙路口,113.192269,22.008111
c92cd805d18f499b8bbe99ce3824f8c3,铁炉,113.19095,22.002522
c591ec2585724a409eac17ed6b040d8a,美凌达,113.190347,21.997808
8e0a727480b64ccb897a964566ed87d1,电厂路口,113.18995,21.993008
14c9f6571b464655a211ea306e1da211,太平湾,113.197757,21.984072
3de0c28a73244f109a6b9763fd9bf84d,高栏港大厦,113.202628,21.979819
0988c60ec52d490291c0dbd7c59a02f5,珠海港,113.215828,21.967847
1b1adbcf983147baa3b91a31bdbf4863,海泉湾,113.111469,22.072803
74722080be1a4638938c44364e85e8a1,神秘岛,113.111217,22.070547
f27e5a7eeb9b4b6fad35c7d924fa0ee3,海泉湾生活二区,113.113677,22.07555
4b15275a5665485682f81b47bf80cd9a,海泉湾生活一区,113.114962,22.079653
f2eff787e12e490fa36ddc611ab0292b,大虎四队,113.121327,22.085
92d09c3833e84da492e4d65871587cf6,大虎八队,113.130023,22.085318
55f2a3e3ed664656876a4fcb33583de8,大虎,113.135752,22.08553
b35ff04d76f944ceb0ecbf270837876d,前进八队,113.145678,22.087028
661502c6a331406682cd487351b38dc7,迪山实业,113.163515,22.09178
0b16b7688b534fde909a619c5ec0afff,京华假日湾,113.168921,22.095694
672d8a2fadd249fe8fc9e5c5e65452ba,华丰,113.173018,22.101613
c2e258e318974f05a4d82b7c59688db3,平沙医院,113.177617,22.103472
7525396cea5e4b8a8f885af928d0c801,平沙邮局,113.182508,22.105593
8dd3647b88b54067bccb2e4c7e608ba6,平沙机械厂,113.184478,22.106533
6ab35a3bcbac48f89e7ac1d22fc2adc2,平沙工会,113.187188,22.108752
c6c45ba23f7b4a66984aaca600b4e4ce,平沙法庭,113.189283,22.111531
75110c7045504a3e99c74146d370735f,平沙水厂,113.193494,22.112875
efa8ca0584404a0dbc4e41c278876be4,五一三广场,113.193486,22.110592
c081d538639949599ad551948995c867,西海岸花园,113.197395,22.10173
e03c763d102f42548ab05fcb26ffb820,兴发公司,113.200673,22.09595
8413808a0ea84815b19ccaa19910c1ef,台创园北、立新六队,113.202833,22.093175
64ee11ff30bb44b89e98d7043214c89a,大海环,113.211853,22.084535
523e46e5f0db4a7492f998582d75d774,大海环二队,113.218927,22.078778
1b0fedbb8a194122b9ea61933011617b,台创园南、连湾四队,113.227437,22.071042
5679dfb588ac4a208de44866a229f97f,卫东,113.233066,22.065678
df18c9939fab40b68e8fca3130d1af3c,平沙路口（普乐美）,113.236158,22.064858
14f3be8e2329400fa3c8d61cd8305612,连湾,113.241847,22.069939
c99f4cc0313941399245612838547cd7,江龙船舶,113.247461,22.074908
945b614e9a6142d8b1a29f9b0b76dea9,太阳鸟游艇,113.251953,22.078383
ae631fea53254e458074eb99a8851ba4,杰腾造船,113.256969,22.081203
8d49ba6b024949d7b78fc3a39a92b529,鸡啼桥东,113.271203,22.087814
fdd032ff94eb42b6af2309e8779c6f99,大环,113.27735,22.090653
27ca88b67925455cabef097f72fc26c6,氟特科技,113.282556,22.093078
847fda3b0fd146f19196744437897c3b,规划二路口,113.296314,22.099458
f1d709ec0da44f81b193f3a26f736cdb,惠威科技、小林东成路口,113.302889,22.102506
66539618e53d492480793c7d43ebdd12,红灯,113.308042,22.104903
c463eeb48786405c96e35c4a3eed1b08,联港工业区,113.315969,22.109942
2b8bf91e322a42b7bb839440adf1c30d,南顺路口,113.320367,22.113356
29d9fc707d944a64a3dd1b41320b1cb0,南排,113.326858,22.118369
037b290bffce4500932aeaa14e1e7457,心和制衣厂,113.333103,22.123217
d245c2403faf410a8907e725b374a278,金城路口,113.338983,22.127728
23988d9c2e634f66a95029b8a134a2fa,南翔路口,113.342667,22.130625
bdbdbdd647344e64b621d4d6321eb5da,省科干学院,113.347308,22.134211
11d7ceb81d21453d886e01fcd1246cb0,艺术学院,113.351419,22.137389
714c3cbaf218411eb05e1382eb1ed89b,湖心路口,113.360703,22.147483
7a149edb308945e19a44c4173d7a2d9a,灯笼路口,113.3905,22.177194
ca2ce20e0b1d4ee09c9d5c36ba11e8d3,珠海大桥东,113.430232,22.197148
d486f9b7bccb4a18beb06f935e3664e9,均昌、奔图科技,113.437514,22.201561
0072bf792a0349bd93f10a10694ed1ca,广昌,113.442977,22.204558
2677cb327d5d41c3b6f723e3c3dd7317,翠湾,113.448778,22.207558
9b6c576d7584411882f878d52b1e4407,公交信禾物流,113.452852,22.20971
585f05be7bda41ad99d9a9d1ee0aad51,广生,113.468218,22.214523
12f673e6182a47bd8a9025857591f48e,珠光汽车公司,113.471378,22.215463
2f08d5f844b8418698ae095da94fba33,河排,113.4758,22.216793
1af0e0e1bf6d459c99dd6fefebfc9d11,南屏水库,113.482573,22.218822
bbdf673c00cf45869d8be2395d4b28e6,公交柏宁,113.487547,22.220033
e53fca7c48e9400abd2c0146aa17fd7f,南屏中学,113.493372,22.220735
b3dfa9ed0fd6413c88272a00fd08172c,南泉路口,113.497272,22.22166
fc078fcb696f467d82b85f8158869ed9,南屏街口,113.501052,22.223272
5ab0cd292c2d4ba98ad6b1d40b7b64cb,北山、华发商都,113.505603,22.225435
c56c424d5b014d99804f2e61caf1ca0b,华发新城,113.514525,22.229544
8e7dc3b5d90040b5858f19d0a5b8e1fd,白石南、银石雅园南,113.530995,22.234952
0a5eb494705347cc86638ae8092c9fd7,供水总公司,113.53576,22.233103
e9a46a03322c42aeaa02f68c3ea2f7dd,合罗山,113.539481,22.231647
543831c74fd24756acc0489a3f29fa6b,凉粉桥,113.545528,22.229622
0954fe4e92104e1193de7f2c62a56285,拱北,113.547858,22.225092
85d580caa8c945cc9ed060b03bf949bd,城轨珠海站,113.545806,22.218839
e41fef54a3a54e2bb09734a21709d8e9,南水,113.233036,22.030267
d5e7062287d5456ebb065e494decd639,南水市场,113.230539,22.030078
8c7480a3580c4306b921779a92a095f9,祥环新村,113.225358,22.027217
f81de8eb17d747ba8b6fa4bf1d8108b5,恒利工业园,113.22143,22.024832
a0dd2a89c5af40ed8c3ef9b2fdb68c0f,金龙新村,113.212878,22.019332
560a4c48d9784ed99d737bafbf54689f,上金龙,113.207168,22.01559
7ed930c846fc43f4846a53ccb616a451,南水消防队,113.20093,22.014533
67da2f3b76254d2dbc7330933f39fe52,化工专区,113.193532,22.012925
302e0ec9a6af4177afeacfd90b4757ba,下金龙路口,113.19275,22.009308
56bb3a375d62431ebe3a0182dee98ccf,铁炉,113.191383,22.004493
7eee0d954f54466e84afe2d3f1775231,美凌达,113.190305,21.997083
e19a06336f384efbb504c605cc5514c4,电厂路口,113.189927,21.992503
b2229e11aa9e44c18c5f9d314ce864e1,南水大道东,113.183964,21.985644
6ce9ca837dc04ec496699d8c0cb93aa2,电厂一路口,113.177947,21.979828
2954bfc404ff4bc0b12d50298019e18b,珠海电厂,113.183672,21.974275
103ba3ad2be74ee2b008552f951d3c98,钢铁厂西门,113.188156,21.961739
6b47688407ef4b7e8a45f5cd027a04e1,粤裕丰钢铁厂,113.195875,21.964611
e8e3ba1f751e40bcab742db47e554390,北七路南,113.204128,21.971711
ed080c34832a45d1a4a176ae794c733c,北七路中,113.204319,21.977092
f7b968c601f0490db0186423d0a84687,公交招呼站,113.212853,21.971386
979b18c0164d444995bb71e659966046,石场路口,113.237514,21.951242
4f067a77e50941ee8e5d1e758ca27cef,石场,113.243432,21.94876
ae2183970dc84fdaad2a381a9603303a,红土园,113.242839,21.939897
c4facb2d016b405192990ec661df84a1,沙白石,113.241732,21.935833
83767a64c42e46189cecd9f4f89ed077,西坑,113.23943,21.930893
5b8948487f94436db1b7fe1a57efb391,高栏,113.237195,21.925893
e41fef54a3a54e2bb09734a21709d8e9,南水,113.233036,22.030267
d5e7062287d5456ebb065e494decd639,南水市场,113.230539,22.030078
8c7480a3580c4306b921779a92a095f9,祥环新村,113.225358,22.027217
f81de8eb17d747ba8b6fa4bf1d8108b5,恒利工业园,113.22143,22.024832
a0dd2a89c5af40ed8c3ef9b2fdb68c0f,金龙新村,113.212878,22.019332
560a4c48d9784ed99d737bafbf54689f,上金龙,113.207168,22.01559
7ed930c846fc43f4846a53ccb616a451,南水消防队,113.20093,22.014533
67da2f3b76254d2dbc7330933f39fe52,化工专区,113.193532,22.012925
b2eac8fd9f4e4a7f89678e28b57e307d,下金龙路口,113.192269,22.008111
56bb3a375d62431ebe3a0182dee98ccf,铁炉,113.191383,22.004493
7eee0d954f54466e84afe2d3f1775231,美凌达,113.190305,21.997083
e19a06336f384efbb504c605cc5514c4,电厂路口,113.189927,21.992503
14c9f6571b464655a211ea306e1da211,太平湾,113.197757,21.984072
0e3f6910639043658a1ddc3fadf39346,高栏港大厦,113.202775,21.979763
f7b968c601f0490db0186423d0a84687,公交招呼站,113.212853,21.971386
979b18c0164d444995bb71e659966046,石场路口,113.237514,21.951242
4f067a77e50941ee8e5d1e758ca27cef,石场,113.243432,21.94876
e7fe1265f0bb4989b84a387e39bdd372,赤鱼头,113.266983,21.950467
662784a2c7324f23b14ce543f70f781e,大飞沙,113.272565,21.939022
29c4fee61aaf4fb49d0bb6491538dd91,飞沙,113.272717,21.921902
23b7f416a84e43f894939554f3249e0b,飞沙滩,113.2761,21.920881
17c0b82a99c84c21a1c671b6bb93cf94,三一海洋重工,113.153936,22.016267
165f510b0e5642b9a5cd8980ecc4a577,珠海西站路口,113.156056,22.011083
6b946922ac61479a97e0ac38bef575f4,海工大桥北,113.161536,22.004247
86b99db640d14a508f6a4744653218af,海工二路口,113.176136,21.989853
b2229e11aa9e44c18c5f9d314ce864e1,南水大道东,113.183964,21.985644
953cb6bd09b5420088ea0afbb22795c8,电厂路口,113.190467,21.994089
c48bc20483da401584414384c47f2b79,美凌达,113.190864,21.998889
dc740e671f2a484194c5e8ebf8eae723,铁炉,113.191625,22.003811
eaa22a5127204d83940c209086a471e1,下金龙路口,113.193128,22.009761
bd0a7c490a144e1c8539b846c2d093a6,化工专区,113.193989,22.013222
d371aad32d58407cab29761166d0ad4a,南通,113.195594,22.019219
c0cc7aa4f0274968bee3580a1660cd74,南水客运站,113.196138,22.020549
a6c0cf8ed5bc4d0e90a987291eb2a626,拱北口岸总站,113.550794,22.220994
d4905085c0ad4e9ab0124f5208413d5a,拱北,113.548206,22.224625
421f5f2d56174a4c96e60274bc7c61c6,凉粉桥,113.5457,22.229736
b2818fe2d54f470dbf70bb83e4bb2442,合罗山,113.538497,22.232272
4574a5dd01b640a29d52ecc12c1305bf,供水总公司,113.535073,22.233497
8e7dc3b5d90040b5858f19d0a5b8e1fd,白石南、银石雅园南,113.530995,22.234952
8fb2e930f0aa41a290cd6ed6154b970d,前山西门,113.51971,22.241195
2777b89496e04e8eb95a5d893069e856,明珠商业广场,113.515975,22.247644
7dd148ecdeb34182863c45395ef1373f,明珠中,113.515442,22.25245
6f4c6893a88a4767a664109e973e6e28,翠景工业区,113.515094,22.255697
92de44b4dbf545af9174104cec4c0131,翠微,113.514633,22.259644
6d81e5bedd494562b88060c38c8c5b03,明珠北,113.5143,22.263003
3a2938dcfd02480187a350e70b9cd67b,城轨明珠站,113.510789,22.271294
5d8282b93a464117919ebbae089c9a58,坦洲路口,113.497815,22.282215
0c959c2b90bf410aab978b5ef131f359,南溪,113.496258,22.28526
2d4e4f95f280466985bec2cc2fe99094,沥溪南,113.493293,22.289791
9dcc06b4f9ad4d0eaaa4d03de547674e,沥溪,113.492092,22.291088
150ed9ba369841d7a26803d5f25401df,沥溪北,113.488758,22.294981
a61ffb84d25642c78b01cdfa8f1e4e13,和平市场,113.482735,22.301878
9c24286886844540be4493d347836ba7,界涌工业区,113.478535,22.3066
8bb769aca500471aa396e5d6a8009ea5,界涌,113.476548,22.307967
493805f7d4934341bae72abe40647fde,安骅汽车,113.472153,22.311808
f269857bfee449a2a3454057914b2341,沿海高速路口,113.470122,22.316872
aa7534d67835429da8fb1e00f8e21c53,华财古玩城,113.468139,22.3207
533abee310b54b91ab818d871fce5b94,盛业路口,113.461456,22.327969
038d0e12c25742f9ad4dfb316737b399,金涌大道南,113.455431,22.333542
d4985f457c2e46f8b16f02f5f457820a,海尚绿洲,113.4502,22.338878
c09b781ae96c44c585a5af15286e43fb,鸦岗路口,113.443844,22.345219
ee86ef8def8249179eca5d1678227f2c,泉眼村西,113.43905,22.34945
592f7cae43674abe8910f0a3c361fb9b,雅湖居,113.434322,22.353586
95b7663764914afd81c743f5cad72de4,雅居乐车站,113.435606,22.358448
8255b5d9b6434223b3d91d98c892f72d,锦绣国际花城,113.448239,22.273356
66c661f1275a4042939903b45922ca40,永一,113.451392,22.27715
46bf8da4b9c442d8a54214987dadcdf8,坦洲实验中学,113.4556,22.277842
db8a2b94489d47bfb24ea628cb585764,坦洲医院,113.459167,22.274542
fa62e62d4dd3408a85b34c59a147eb7b,金斗湾客运站,113.461356,22.274919
0717469cc92b4175b1a944d9fd0c5993,合胜百货,113.468685,22.266253
c820de9cfcc94aba83ee819ef74fea5e,汇昌酒店,113.471901,22.264615
32caaa9490f84cd8b3ee1ed7c813fb3a,安阜工业区,113.474598,22.265787
9b686539b24549aabdace2fa21e260b1,中澳新城,113.478908,22.265281
b11bd8f355694a14b648484fe3ae9146,中澳景湖居,113.481728,22.262422
d4890411ab2f44449972984019bb0322,汇翠山庄,113.479331,22.268136
6372a4ad77d74c2db22c6ff72ba89bce,洲际新村,113.484934,22.27195
e500c3992fb1443dbbcf303273912ed9,金山城,113.488695,22.274468
3cf1656b74e043d4aa44c2d591af1d3a,同胜工业区,113.491362,22.276232
3d534b16154643058a7c4566624a11c2,海纳城,113.493822,22.278011
a8d45231ed6c474ebce0adfd00950add,南坦路东,113.496748,22.280272
28986fdc88154af6b2ed199abc46746f,长沙圩,113.502461,22.277592
b1ac16f041ca4e1dac2896041cacaf3e,恒雅名园,113.508344,22.277119
dde087e7e2ed4e27ac6ce7b5e9729f20,蓝盾路口,113.514158,22.278164
81aa8693361e483cbf39b60ea1e30b79,葵竹苑,113.519075,22.276098
4eba4b3e0bd04b0583c52e9fa4b2eddd,翠前小学,113.5195,22.27215
5b7d996a8cb342d1b264add76e40f949,恒隆学校,113.520018,22.267975
f38203b124484ca5996fd7943cfeb94d,翠微市场,113.520427,22.264573
5d3cf54ece3c4dbeac527d2ff6045f39,招商花园城,113.520456,22.260954
b507bb8f7e5046388bdd4eec349fde37,艺术高中,113.523818,22.256603
66c6018522a2422f99a2832ef6ba6d50,暨南大学,113.525955,22.25256
54ef6a5001ec47d8b66e755949938e36,世邦广场,113.523967,22.247053
ea893d78bd704c1091d89755d0db04f7,瀚林苑,113.52315,22.244647
825e8bf471224fbaae2f4589baa50fb0,前山,113.521697,22.242539
25e46ee39fb04d2da477b701c5f1cbe4,白石、银石雅园,113.533012,22.238673
28e142b3b19b48b8a7c8fcbf3ceae8e8,兰埔、富华里,113.537595,22.23937
da1711ac05844f93bb6e4fd63d906afa,竹苑,113.551902,22.242717
faaced3190de445aaeb5df1176146098,中电大厦,113.567242,22.248217
bb2029e1ae9b45fb92da75bbea92d55e,吉大,113.57111,22.253713
c110584a68f4421f98dd76851bc07eae,九洲城,113.573995,22.259017
39f0ea26778648ac8c8fe0c820082908,光大国贸,113.577613,22.258753
8f8174389faf4ade8418e18c8cad7b1b,海虹总站,113.568808,22.295806
f463c8ee96b54bad935d71d269b025e4,北堤,113.571055,22.293407
ffb420f26c3e4d8091afc590a720f89a,燃气集团,113.568027,22.29254
dd5fe786e2da4fee9603e171b5317fea,凤凰北,113.566537,22.289968
76368420b06240479892002d8e244aed,翠香中,113.566067,22.285338
8638c455a424445d8b5122b4a0628d9c,香洲总站,113.561088,22.28189
986531bc5af04121a7a5bbbf27854cfb,南坑,113.560798,22.278653
e08091f7813e44c787f30e43f6eed746,桃园新村,113.560138,22.276947
dcd1492852f34feda2783ef81fdcbfe3,滨海楼,113.560305,22.274048
7d473e25b8694c72ad48088bdfe0ce11,二中,113.567777,22.272932
75b09c530dba42118c92172a9f7c2efd,公积金中心,113.573682,22.271912
bdc5b951ae9c4d3b893222e232a6c617,海滨公园,113.576517,22.265078
39f0ea26778648ac8c8fe0c820082908,光大国贸,113.577613,22.258753
2e31f880df6d4e2890668dda797ec2e8,海滨南,113.578503,22.256558
436461cc55fe41708eacccae603b1851,珠海电台,113.583713,22.25084
848dfe15e2c54241b4d27523bf099885,洲仔,113.586975,22.246781
962ee8ffd4224cc3ba52a6721f82635d,九洲港,113.587458,22.243011
bc3dc8f8be3449bf9541af1fd5c7c78f,九洲花园,113.582548,22.244213
160a09b2c16d433abdede0736c653dc7,度假村,113.57756,22.243412
2019a697607f4eda8a2364faf96d0581,华景花园,113.57072,22.243697
c171ec5c4d3343eba2b92ba5873bdc92,南油大酒店,113.567672,22.242257
794bcb79318b4886af7602388b75fa8a,水湾头,113.566227,22.237438
0ae3abdf3e574b4ebb28f5cdf48b1c3d,海湾大酒店,113.560888,22.233273
dc5ff6ac95894e0c9c167c6444207feb,银海新村,113.557907,22.230202
f47c6daf4beb4429801f98840f987be5,粤海东,113.553307,22.227557
67cba7adbb3242fd839434fa1f53cfa1,银都,113.550138,22.229348
3776787d5ae8437cb542858ef09cfe9c,新市花园,113.54629,22.225728
bbe338777ec44be9916ca3330435bcde,第二人民医院,113.542277,22.225242
df6f78fce45a4d538baacb0fe46dd947,粤华西,113.53672,22.223237
0653a11d83ba482b9e714b54f7881bfb,嘉豪园,113.533172,22.220936
efcf811cf8ff43f09796d459ca03b73f,前河东路南,113.529473,22.221368
27e5835ef9f943729cf2a506a0053891,夏湾路口,113.528386,22.223531
4cb7b6d77c0e416badd784a240033c6a,拱北工商分局,113.530703,22.225817
ddd182bf8e654dd7b0a7074fe2f92b5e,夏湾,113.529722,22.223618
8f8174389faf4ade8418e18c8cad7b1b,海虹总站,113.568808,22.295806
f463c8ee96b54bad935d71d269b025e4,北堤,113.571055,22.293407
ffb420f26c3e4d8091afc590a720f89a,燃气集团,113.568027,22.29254
23f7979ab7804ef6abb314ecdac4693f,凤凰北,113.566498,22.289968
76368420b06240479892002d8e244aed,翠香中,113.566067,22.285338
8638c455a424445d8b5122b4a0628d9c,香洲总站,113.561088,22.28189
986531bc5af04121a7a5bbbf27854cfb,南坑,113.560798,22.278653
e08091f7813e44c787f30e43f6eed746,桃园新村,113.560138,22.276947
22e05ea260c1428baf3d5b5cd032e63e,银桦新村,113.555503,22.274633
419aae94bc4d4d7f85fc2cbc52a9df5f,新村,113.549798,22.274052
8bf54deada644f61b5bea3f8090cc1ce,南村,113.540685,22.27248
7a2b8cd7b1ae412194357e684b8bdf4c,香洲区府,113.534852,22.271537
e8de03d1600144d0b6e24a2d2ee9ae2b,红山、仁恒星园,113.531358,22.270957
a9d903998f354db98a9aa9c2aad8c8e5,安居园,113.525528,22.270069
76c82cc4394e46efb6ded972aadb95d6,新香洲万家,113.52237,22.269587
db4ac2beeb404614881656192df56655,上冲,113.517138,22.268768
0f23a5f8c9b74961b0b959daa6389f5e,明珠北,113.513939,22.262794
4f81f618e310459999b3866b2f20c2ac,翠微,113.514278,22.259892
c6c4b8a19a8c487a8719e1ce018fff69,翠景工业区,113.514747,22.256042
2376630ca548456dbf375111abdce37a,明珠中,113.515175,22.252183
a1df61dcec53491a939bb8dc55622e12,莲塘,113.5139,22.249386
99670bc916394629afaa469faf3258f5,人力资源中心,113.510586,22.247506
c5ee2c69d86f45a9a25fd19b0ae1b2c9,造贝,113.50768,22.245075
02b31d3a32d34ad0b8c0376913024e20,福石,113.503493,22.24191
9990a3ae136a49d9882cb5eab3550fec,中臣花园,113.499357,22.239735
01e0de23a8cc4a20a6c758849c1b34fa,南屏大桥,113.501453,22.229555
74be00085a804ba7879c752e935d931f,南屏,113.505845,22.221907
5ae7f79db475428791b9ea1c3544bb82,北山工业区,113.509238,22.217992
a2b2180a367b4c7cbfc43064950011a9,竹仙洞,113.516959,22.211769
ee0c79605c074089a94eef09f4ec4d6c,南山,113.520688,22.210473
1431c6591f3e49b2a60fc3e973856ec4,湾仔中学,113.524267,22.207691
9b3f64506002428294cba47be601cf43,鸿景花园临时站,113.530558,22.201536
afce9ab413884219af35cdb568b3f659,湾仔旅游码头,113.527714,22.193575
c1824ec61da8450792cfd326e99f67d5,湾仔,113.529278,22.195195
df0ad753ee804b12b43be5b95eea9fc3,香洲港,113.578372,22.292658
f463c8ee96b54bad935d71d269b025e4,北堤,113.571055,22.293407
ffb420f26c3e4d8091afc590a720f89a,燃气集团,113.568027,22.29254
dd5fe786e2da4fee9603e171b5317fea,凤凰北,113.566537,22.289968
76368420b06240479892002d8e244aed,翠香中,113.566067,22.285338
f743d3724bda4b25a29430f9c5c2d341,夏美,113.564943,22.28056
da114595a67745f7b75a200712d702d5,光明街,113.565743,22.276018
56f5f3ed2ae349cd86d689aa604f919e,胡湾里,113.564495,22.271617
a7c3d9bc01dd482182cc43f2f0fbc573,警察学校,113.559705,22.269827
bb791eac71c64f778e332706ac512ff7,六小,113.555465,22.267762
14fd0158d20848f3a26172ec2ddea80e,柠溪市场,113.55158,22.266648
6aa579243b1e4d2b9f5dcecfac4ea855,青竹花园,113.549383,22.264642
fcfcde50c07e440ab044dbfae7b880c3,柠溪,113.546385,22.263207
0d3d1f8a30044b689b87694dc65c1e36,隧道南,113.5452,22.243733
d7db6ef4ddcb45b69f166e10751a2d44,摩尔广场,113.546222,22.237328
c7a1c6413c8b44219dd1a4d8d265ac62,华侨宾馆,113.546868,22.233377
583401abc31545abace9cd3f6c79b58c,拱北,113.548025,22.223978
7d86749fee3a4748b7af0d5904873c4b,国寿大厦,113.53985,22.222808
df6f78fce45a4d538baacb0fe46dd947,粤华西,113.53672,22.223237
0653a11d83ba482b9e714b54f7881bfb,嘉豪园,113.533172,22.220936
efcf811cf8ff43f09796d459ca03b73f,前河东路南,113.529473,22.221368
27e5835ef9f943729cf2a506a0053891,夏湾路口,113.528386,22.223531
4cb7b6d77c0e416badd784a240033c6a,拱北工商分局,113.530703,22.225817
ddd182bf8e654dd7b0a7074fe2f92b5e,夏湾,113.529722,22.223618
72bfdcf955b5413da6b6e65bb64db0fd,大桥口岸枢纽,113.570376,22.211029
b96702b6d9e244b3beadf03cf2cd3caf,九洲驿站,113.584592,22.236067
2a92b2bd04d947f8b3a0c2ba9a1866d3,海愉半岛,113.5822,22.238042
4c91cbcdb5544895ab8e25fc29a5016e,情侣南路北,113.579528,22.24143
4ad726f72dd04c5fbfa68110832afebc,九洲花园,113.582732,22.244208
f43ffe74ada94f7183fb4de09acb297a,九洲港,113.586244,22.243311
aadb2cbaea1d4218baa629e22d060034,洲仔,113.587475,22.246371
efdcd6b344d744d7abbf097b5686feea,珠海电台,113.582128,22.252203
735927312ac1455c8e91447dd97f69f7,交行大厦,113.574047,22.250847
8a8a997c548545e998940a0036dabd43,中电大厦,113.5652,22.24795
c493b1894d7d4ed091eb537b45d032dd,白莲洞公园,113.558044,22.24575
f3899037c2144dc89c77e968159f8f96,竹苑,113.552287,22.243057
c99c7cc164c04b9aaae2aa18949aa120,隧道南,113.545811,22.243247
87211d17022644288271d91e2945a4af,柠溪,113.546438,22.262802
8a177b2211cb4fe2a7281d007fa0eeab,香宁花园,113.55135,22.267502
e103a53268884930a8c823e734266c33,南香里,113.556232,22.271768
dcd1492852f34feda2783ef81fdcbfe3,滨海楼,113.560305,22.274048
7d473e25b8694c72ad48088bdfe0ce11,二中,113.567777,22.272932
98f55ef59a634618b1121902d9e9774c,人民医院,113.57092,22.276657
07288e0340e54554a13e3a077bd66fd9,湾仔沙,113.573862,22.275837
bb53ac35f6384f19b87b28fabb92c0da,百货公司,113.572569,22.280486
c2bf1df7098d4664b3ee2857d21b2790,邮政大厦,113.569485,22.28549
823d1716e08b477480db7f4532bb7aa8,凤凰北,113.567503,22.288642
a9a1d178069940798e0762d177401360,华子石东,113.567497,22.294064
4fe3d009d93646c4979a295555308a04,海虹总站,113.56885,22.295722
a0d6b910c8a54634b81492d2629cd4a6,华发新城总站,113.508497,22.236408
b6c0953d063c400d881d742ec6b91f35,奥特美会所,113.510767,22.232223
5ab0cd292c2d4ba98ad6b1d40b7b64cb,北山、华发商都,113.505603,22.225435
c56c424d5b014d99804f2e61caf1ca0b,华发新城,113.514525,22.229544
7e52110e8eee4a26848d07509691f5e6,海荣新村,113.524272,22.233825
4222aa3bb0fa48968345abf928a0795d,城轨前山站,113.520867,22.237278
7c25590fbad046728ee82384c5c94b4b,漾湖明居,113.517219,22.240794
2777b89496e04e8eb95a5d893069e856,明珠商业广场,113.515975,22.247644
7dd148ecdeb34182863c45395ef1373f,明珠中,113.515442,22.25245
6f4c6893a88a4767a664109e973e6e28,翠景工业区,113.515094,22.255697
922ee928169a4afc944efd803aa4cd0d,招商花园城南,113.516023,22.257697
b507bb8f7e5046388bdd4eec349fde37,艺术高中,113.523818,22.256603
3bcf3c69ead24e94900637418f8ec18d,世邦家居世界,113.527448,22.258888
466b5a96ca8e42a1b4ebb2de175df07d,三台石北,113.527875,22.266368
